Time,Lat,Lon,Alt,Heading,Roll,Pitch,Yaw
1742741502.3414133,-35.3646824,149.1724631,684.51,25,-0.48073849081993103,-0.04152524098753929,0.4497547447681427
1742741502.441686,-35.3646824,149.1724631,684.51,25,-0.48073849081993103,-0.04152524098753929,0.4497547447681427
1742741502.5419831,-35.3646824,149.1724631,684.51,25,-0.48073849081993103,-0.04152524098753929,0.4497547447681427
1742741502.6422694,-35.3646313,149.1724877,684.49,23,-0.44061747193336487,-0.05269332602620125,0.40971723198890686
1742741502.7425497,-35.3646313,149.1724877,684.49,23,-0.44061747193336487,-0.05269332602620125,0.40971723198890686
1742741502.8428102,-35.3645837,149.1725086,684.43,21,-0.4197026789188385,-0.054783836007118225,0.3731611371040344
1742741502.9429686,-35.3645837,149.1725086,684.43,21,-0.4197026789188385,-0.054783836007118225,0.3731611371040344
1742741503.0432105,-35.3645837,149.1725086,684.43,21,-0.4197026789188385,-0.054783836007118225,0.3731611371040344
1742741503.143435,-35.3645314,149.1725291,684.38,19,-0.39294078946113586,-0.05318885296583176,0.33802086114883423
1742741503.2436755,-35.3645314,149.1725291,684.38,19,-0.39294078946113586,-0.05318885296583176,0.33802086114883423
1742741503.3438418,-35.3644824,149.1725462,684.33,17,-0.3586883544921875,-0.05530861020088196,0.3087977170944214
1742741503.4439702,-35.3644824,149.1725462,684.33,17,-0.3586883544921875,-0.05530861020088196,0.3087977170944214
1742741503.5441144,-35.3644824,149.1725462,684.33,17,-0.3586883544921875,-0.05530861020088196,0.3087977170944214
1742741503.644275,-35.3644289,149.172563,684.28,16,-0.31935492157936096,-0.05646246671676636,0.2816479802131653
1742741503.7444413,-35.3644289,149.172563,684.28,16,-0.31935492157936096,-0.05646246671676636,0.2816479802131653
1742741503.8445842,-35.3643793,149.172577,684.24,14,-0.2862245440483093,-0.06020985543727875,0.25699836015701294
1742741503.9447463,-35.3643793,149.172577,684.24,14,-0.2862245440483093,-0.06020985543727875,0.25699836015701294
1742741504.0448904,-35.3643793,149.172577,684.24,14,-0.2862245440483093,-0.06020985543727875,0.25699836015701294
1742741504.145021,-35.364326,149.1725908,684.19,13,-0.2519574463367462,-0.06081336736679077,0.23184117674827576
1742741504.2451718,-35.364326,149.1725908,684.19,13,-0.2519574463367462,-0.06081336736679077,0.23184117674827576
1742741504.3454175,-35.3642769,149.1726023,684.15,12,-0.22490008175373077,-0.06175011396408081,0.21225298941135406
1742741504.4456887,-35.3642769,149.1726023,684.15,12,-0.22490008175373077,-0.06175011396408081,0.21225298941135406
1742741504.5459743,-35.3642769,149.1726023,684.15,12,-0.22490008175373077,-0.06175011396408081,0.21225298941135406
1742741504.646233,-35.3642237,149.1726137,684.1,10,-0.19676759839057922,-0.06429889053106308,0.19132627546787262
1742741504.7464852,-35.3642237,149.1726137,684.1,10,-0.19676759839057922,-0.06429889053106308,0.19132627546787262
1742741504.8466384,-35.3641745,149.1726233,684.04,10,-0.1691160798072815,-0.06229497492313385,0.17679964005947113
1742741504.9469051,-35.3641745,149.1726233,684.04,10,-0.1691160798072815,-0.06229497492313385,0.17679964005947113
1742741505.0470638,-35.3641745,149.1726233,684.04,10,-0.1691160798072815,-0.06229497492313385,0.17679964005947113
1742741505.1473246,-35.3641207,149.172633,684.0,9,-0.1383451670408249,-0.059917960315942764,0.16284900903701782
1742741505.2475636,-35.3641207,149.172633,684.0,9,-0.1383451670408249,-0.059917960315942764,0.16284900903701782
1742741505.347733,-35.3640707,149.1726414,683.97,8,-0.11497732996940613,-0.06174195185303688,0.15067815780639648
1742741505.4479818,-35.3640707,149.1726414,683.97,8,-0.11497732996940613,-0.06174195185303688,0.15067815780639648
1742741505.548246,-35.3640707,149.1726414,683.97,8,-0.11497732996940613,-0.06174195185303688,0.15067815780639648
1742741505.648388,-35.3640163,149.1726501,683.94,8,-0.08841108530759811,-0.062370989471673965,0.1425771713256836
1742741505.748635,-35.3640163,149.1726501,683.94,8,-0.08841108530759811,-0.062370989471673965,0.1425771713256836
1742741505.8489118,-35.3639661,149.1726577,683.9,7,-0.06682967394590378,-0.062096498906612396,0.13474978506565094
1742741505.949073,-35.3639661,149.1726577,683.9,7,-0.06682967394590378,-0.062096498906612396,0.13474978506565094
1742741506.0492537,-35.3639661,149.1726577,683.9,7,-0.06682967394590378,-0.062096498906612396,0.13474978506565094
1742741506.1495025,-35.3639121,149.1726657,683.89,7,-0.047565773129463196,-0.05832071974873543,0.1293291598558426
1742741506.2497733,-35.3639121,149.1726657,683.89,7,-0.047565773129463196,-0.05832071974873543,0.1293291598558426
1742741506.349916,-35.3638625,149.1726728,683.89,7,-0.031379714608192444,-0.0605970062315464,0.12583069503307343
1742741506.450177,-35.3638625,149.1726728,683.89,7,-0.031379714608192444,-0.0605970062315464,0.12583069503307343
1742741506.5503204,-35.3638625,149.1726728,683.89,7,-0.031379714608192444,-0.0605970062315464,0.12583069503307343
1742741506.650471,-35.3638087,149.1726804,683.87,7,-0.015246021561324596,-0.060589514672756195,0.12223879247903824
1742741506.7506714,-35.3638087,149.1726804,683.87,7,-0.015246021561324596,-0.060589514672756195,0.12223879247903824
1742741506.8508015,-35.3637591,149.1726875,683.86,6,0.00020466287969611585,-0.0581815242767334,0.11913290619850159
1742741506.9509532,-35.3637591,149.1726875,683.86,6,0.00020466287969611585,-0.0581815242767334,0.11913290619850159
1742741507.051155,-35.3637591,149.1726875,683.86,6,0.00020466287969611585,-0.0581815242767334,0.11913290619850159
1742741507.1512852,-35.3637052,149.1726951,683.87,6,0.013282891362905502,-0.05688616260886192,0.1189303770661354
1742741507.2514489,-35.3637052,149.1726951,683.87,6,0.013282891362905502,-0.05688616260886192,0.1189303770661354
1742741507.3516228,-35.363655,149.1727023,683.87,6,0.025631407275795937,-0.059940632432699203,0.1189381405711174
1742741507.4517472,-35.363655,149.1727023,683.87,6,0.025631407275795937,-0.059940632432699203,0.1189381405711174
1742741507.551892,-35.363655,149.1727023,683.87,6,0.025631407275795937,-0.059940632432699203,0.1189381405711174
1742741507.6520228,-35.3636004,149.1727103,683.85,6,0.03834250196814537,-0.06136377528309822,0.11976709961891174
1742741507.752207,-35.3636004,149.1727103,683.85,6,0.03834250196814537,-0.06136377528309822,0.11976709961891174
1742741507.8523653,-35.3635498,149.1727179,683.84,6,0.04507175832986832,-0.05701038986444473,0.12058115750551224
1742741507.95253,-35.3635498,149.1727179,683.84,6,0.04507175832986832,-0.05701038986444473,0.12058115750551224
1742741508.0526853,-35.3634955,149.1727263,683.87,6,0.053706780076026917,-0.052796054631471634,0.1246173232793808
1742741508.1528232,-35.3634955,149.1727263,683.87,7,0.053706780076026917,-0.052796054631471634,0.1246173232793808
1742741508.2530665,-35.3634955,149.1727263,683.87,7,0.053706780076026917,-0.052796054631471634,0.1246173232793808
1742741508.3532326,-35.3634456,149.1727342,683.9,7,0.05997795611619949,-0.05853259563446045,0.1282072812318802
1742741508.453499,-35.3634456,149.1727342,683.9,7,0.05997795611619949,-0.05853259563446045,0.1282072812318802
1742741508.5537596,-35.3634456,149.1727342,683.9,7,0.05997795611619949,-0.05853259563446045,0.1282072812318802
1742741508.6539114,-35.3633917,149.1727431,683.89,7,0.06368155032396317,-0.06172624230384827,0.13321378827095032
1742741508.7540631,-35.3633917,149.1727431,683.89,7,0.06368155032396317,-0.06172624230384827,0.13321378827095032
1742741508.8542464,-35.3633419,149.1727517,683.88,7,0.06608311831951141,-0.05737699568271637,0.1378977745771408
1742741508.9544275,-35.3633419,149.1727517,683.88,7,0.06608311831951141,-0.05737699568271637,0.1378977745771408
1742741509.0547552,-35.363288,149.1727612,683.89,8,0.06885739415884018,-0.054223839193582535,0.142841175198555
1742741509.1549013,-35.363288,149.1727612,683.89,8,0.06885739415884018,-0.054223839193582535,0.142841175198555
1742741509.2550936,-35.363288,149.1727612,683.89,8,0.06885739415884018,-0.054223839193582535,0.142841175198555
1742741509.3552814,-35.3632378,149.1727705,683.91,8,0.07202456891536713,-0.05708819627761841,0.14666804671287537
1742741509.4554644,-35.3632378,149.1727705,683.91,8,0.07202456891536713,-0.05708819627761841,0.14666804671287537
1742741509.5558512,-35.3631833,149.1727809,683.92,8,0.0724591389298439,-0.06026158481836319,0.15148210525512695
1742741509.655999,-35.3631833,149.1727809,683.92,8,0.0724591389298439,-0.06026158481836319,0.15148210525512695
1742741509.7561584,-35.3631833,149.1727809,683.92,8,0.0724591389298439,-0.06026158481836319,0.15148210525512695
1742741509.8563433,-35.3631328,149.1727908,683.92,8,0.0741729587316513,-0.05917041003704071,0.1566724330186844
1742741509.9564946,-35.3631328,149.1727908,683.92,8,0.0741729587316513,-0.05917041003704071,0.1566724330186844
1742741510.056628,-35.3631328,149.1727908,683.92,8,0.0741729587316513,-0.05917041003704071,0.1566724330186844
1742741510.156775,-35.3630783,149.172802,683.94,9,0.07623101770877838,-0.053753770887851715,0.16240639984607697
1742741510.2568705,-35.3630783,149.172802,683.94,9,0.07623101770877838,-0.053753770887851715,0.16240639984607697
1742741510.3569891,-35.3630286,149.1728126,683.98,9,0.07594536244869232,-0.05620335415005684,0.1676764190196991
1742741510.4572325,-35.3630286,149.1728126,683.98,9,0.07594536244869232,-0.05620335415005684,0.1676764190196991
1742741510.557368,-35.3629751,149.1728243,683.99,9,0.07325997203588486,-0.06099020689725876,0.1741894781589508
1742741510.6574886,-35.3629751,149.1728243,683.99,9,0.07325997203588486,-0.06099020689725876,0.1741894781589508
1742741510.757639,-35.3629751,149.1728243,683.99,9,0.07325997203588486,-0.06099020689725876,0.1741894781589508
1742741510.8578012,-35.3629257,149.1728355,683.99,10,0.07271982729434967,-0.0591236874461174,0.17920348048210144
1742741510.9579394,-35.3629257,149.1728355,683.99,10,0.07271982729434967,-0.0591236874461174,0.17920348048210144
1742741511.0580704,-35.3628723,149.1728479,684.0,10,0.07183115929365158,-0.05813334137201309,0.18642403185367584
1742741511.158206,-35.3628723,149.1728479,684.0,10,0.07183115929365158,-0.05813334137201309,0.18642403185367584
1742741511.2583792,-35.3628723,149.1728479,684.0,10,0.07183115929365158,-0.05813334137201309,0.18642403185367584
1742741511.35854,-35.3628227,149.1728598,684.0,11,0.06920862942934036,-0.06015637516975403,0.1923498511314392
1742741511.4587128,-35.3628227,149.1728598,684.0,11,0.06920862942934036,-0.06015637516975403,0.1923498511314392
1742741511.5588677,-35.3628227,149.1728598,684.0,11,0.06920862942934036,-0.06015637516975403,0.1923498511314392
1742741511.6590357,-35.3627687,149.1728732,683.99,11,0.0657980814576149,-0.059470970183610916,0.19660037755966187
1742741511.7592595,-35.3627687,149.1728732,683.99,11,0.0657980814576149,-0.059470970183610916,0.19660037755966187
1742741511.859432,-35.3627187,149.1728858,684.0,11,0.06375110894441605,-0.056883782148361206,0.2009202092885971
1742741511.9596708,-35.3627187,149.1728858,684.0,11,0.06375110894441605,-0.056883782148361206,0.2009202092885971
1742741512.0600233,-35.3626648,149.1728998,684.01,11,0.0600041039288044,-0.06274756789207458,0.20462581515312195
1742741512.160161,-35.3626648,149.1728998,684.01,11,0.0600041039288044,-0.06274756789207458,0.20462581515312195
1742741512.2603958,-35.3626648,149.1728998,684.01,11,0.0600041039288044,-0.06274756789207458,0.20462581515312195
1742741512.3606205,-35.3626155,149.1729128,683.99,11,0.056577637791633606,-0.061932504177093506,0.20921364426612854
1742741512.4608257,-35.3626155,149.1729128,683.99,11,0.056577637791633606,-0.061932504177093506,0.20921364426612854
1742741512.5609677,-35.3625623,149.1729272,684.0,12,0.055074457079172134,-0.056534476578235626,0.21525980532169342
1742741512.661128,-35.3625623,149.1729272,684.0,12,0.055074457079172134,-0.056534476578235626,0.21525980532169342
1742741512.7613144,-35.3625623,149.1729272,684.0,12,0.055074457079172134,-0.056534476578235626,0.21525980532169342
1742741512.8615143,-35.3625132,149.1729406,684.02,12,0.05253371223807335,-0.0566384457051754,0.21946606040000916
1742741512.961778,-35.3625132,149.1729406,684.02,12,0.05253371223807335,-0.0566384457051754,0.21946606040000916
1742741513.0619223,-35.3624602,149.1729555,684.04,12,0.04761793091893196,-0.06066405028104782,0.2230212241411209
1742741513.1623168,-35.3624602,149.1729555,684.04,12,0.04761793091893196,-0.06066405028104782,0.2230212241411209
1742741513.2625806,-35.3624602,149.1729555,684.04,12,0.04761793091893196,-0.06066405028104782,0.2230212241411209
1742741513.362854,-35.3624112,149.1729693,684.03,12,0.043460313230752945,-0.06220664456486702,0.22643597424030304
1742741513.4630759,-35.3624112,149.1729693,684.03,12,0.043460313230752945,-0.06220664456486702,0.22643597424030304
1742741513.5632226,-35.3623577,149.1729847,684.02,13,0.04108216613531113,-0.05644409358501434,0.23116514086723328
1742741513.6634297,-35.3623577,149.1729847,684.02,13,0.04108216613531113,-0.05644409358501434,0.23116514086723328
1742741513.7636654,-35.3623577,149.1729847,684.02,13,0.04108216613531113,-0.05644409358501434,0.23116514086723328
1742741513.8638685,-35.3623081,149.1729992,684.04,13,0.03867725655436516,-0.058625731617212296,0.23269473016262054
1742741513.9640872,-35.3623081,149.1729992,684.04,13,0.03867725655436516,-0.058625731617212296,0.23269473016262054
1742741514.0642145,-35.3622544,149.173015,684.03,13,0.034186284989118576,-0.06469167768955231,0.23652416467666626
1742741514.1643324,-35.3622544,149.173015,684.03,13,0.034186284989118576,-0.06469167768955231,0.23652416467666626
1742741514.264558,-35.3622544,149.173015,684.03,13,0.034186284989118576,-0.06469167768955231,0.23652416467666626
1742741514.3647757,-35.362205,149.1730298,684.01,13,0.031320322304964066,-0.061764657497406006,0.2402331531047821
1742741514.4649224,-35.362205,149.1730298,684.01,13,0.031320322304964066,-0.061764657497406006,0.2402331531047821
1742741514.5650444,-35.3621519,149.1730458,684.02,13,0.029970791190862656,-0.0549398809671402,0.24229058623313904
1742741514.6652513,-35.3621519,149.1730458,684.02,13,0.029970791190862656,-0.0549398809671402,0.24229058623313904
1742741514.7654905,-35.3621519,149.1730458,684.02,13,0.029970791190862656,-0.0549398809671402,0.24229058623313904
1742741514.8656266,-35.3621031,149.1730607,684.04,14,0.02424285002052784,-0.059245381504297256,0.24455934762954712
1742741514.9657784,-35.3621031,149.1730607,684.04,14,0.02424285002052784,-0.059245381504297256,0.24455934762954712
1742741515.0658998,-35.3620503,149.1730769,684.03,14,0.019896892830729485,-0.06474019587039948,0.24613291025161743
1742741515.1660311,-35.3620503,149.1730769,684.03,14,0.019896892830729485,-0.06474019587039948,0.24613291025161743
1742741515.2661767,-35.3620503,149.1730769,684.03,14,0.019896892830729485,-0.06474019587039948,0.24613291025161743
1742741515.3663003,-35.3620014,149.1730919,684.01,14,0.018054479733109474,-0.061201341450214386,0.24869143962860107
1742741515.4664598,-35.3620014,149.1730919,684.01,14,0.018054479733109474,-0.061201341450214386,0.24869143962860107
1742741515.5666113,-35.361948,149.1731085,684.02,14,0.015085067600011826,-0.05865873023867607,0.2496204674243927
1742741515.6668255,-35.361948,149.1731085,684.02,14,0.015085067600011826,-0.05865873023867607,0.2496204674243927
1742741515.7669787,-35.361948,149.1731085,684.02,14,0.015085067600011826,-0.05865873023867607,0.2496204674243927
1742741515.8671668,-35.3618986,149.1731239,684.03,14,0.013507528230547905,-0.058034155517816544,0.2508622109889984
1742741515.9673362,-35.3618986,149.1731239,684.03,14,0.013507528230547905,-0.058034155517816544,0.2508622109889984
1742741516.067516,-35.3618449,149.1731407,684.03,14,0.012592109851539135,-0.06196817010641098,0.25034478306770325
1742741516.16767,-35.3618449,149.1731407,684.03,14,0.012592109851539135,-0.06196817010641098,0.25034478306770325
1742741516.2678664,-35.3618449,149.1731407,684.03,14,0.012592109851539135,-0.06196817010641098,0.25034478306770325
1742741516.3680408,-35.3617956,149.1731561,684.02,14,0.010088969022035599,-0.06185770779848099,0.2518979012966156
1742741516.4682093,-35.3617956,149.1731561,684.02,14,0.010088969022035599,-0.06185770779848099,0.2518979012966156
1742741516.5683937,-35.3617426,149.1731728,684.03,14,0.009963277727365494,-0.05927189067006111,0.253262996673584
1742741516.6685545,-35.3617426,149.1731728,684.03,14,0.009963277727365494,-0.05927189067006111,0.253262996673584
1742741516.7688835,-35.3617426,149.1731728,684.03,14,0.009963277727365494,-0.05927189067006111,0.253262996673584
1742741516.8691943,-35.3616938,149.1731881,684.04,14,0.007592014968395233,-0.05962445214390755,0.25354528427124023
1742741516.9695032,-35.3616938,149.1731881,684.04,14,0.007592014968395233,-0.05962445214390755,0.25354528427124023
1742741517.069695,-35.3616411,149.1732047,684.04,14,0.005846057552844286,-0.06011152267456055,0.25475770235061646
1742741517.1699932,-35.3616411,149.1732047,684.04,14,0.005846057552844286,-0.06011152267456055,0.25475770235061646
1742741517.2702892,-35.3616411,149.1732047,684.04,14,0.005846057552844286,-0.06011152267456055,0.25475770235061646
1742741517.370437,-35.3615924,149.1732201,684.04,14,0.0041959830559790134,-0.06059416010975838,0.25711673498153687
1742741517.4705844,-35.3615924,149.1732201,684.04,14,0.0041959830559790134,-0.06059416010975838,0.25711673498153687
1742741517.5707352,-35.3615394,149.1732369,684.04,14,0.003016849048435688,-0.05983799323439598,0.2556876838207245
1742741517.6708727,-35.3615394,149.1732369,684.04,14,0.003016849048435688,-0.05983799323439598,0.2556876838207245
1742741517.770965,-35.3615394,149.1732369,684.04,14,0.003016849048435688,-0.05983799323439598,0.2556876838207245
1742741517.8711302,-35.3614903,149.1732525,684.05,14,-0.0012844776501879096,-0.058564525097608566,0.25531813502311707
1742741517.9714155,-35.3614903,149.1732525,684.05,14,-0.0012844776501879096,-0.058564525097608566,0.25531813502311707
1742741518.0717793,-35.3614367,149.1732695,684.05,14,-0.0030707751866430044,-0.06140304356813431,0.2565799653530121
1742741518.1719518,-35.3614367,149.1732695,684.05,14,-0.0030707751866430044,-0.06140304356813431,0.2565799653530121
1742741518.2721326,-35.3614367,149.1732695,684.05,14,-0.0030707751866430044,-0.06140304356813431,0.2565799653530121
1742741518.372311,-35.3613872,149.1732852,684.03,14,-0.0022338880226016045,-0.0652911588549614,0.2574620544910431
1742741518.4725943,-35.3613872,149.1732852,684.03,14,-0.0022338880226016045,-0.0652911588549614,0.2574620544910431
1742741518.572954,-35.3613339,149.1733021,684.02,14,-0.0020861271768808365,-0.05862421914935112,0.2573931813240051
1742741518.6732202,-35.3613339,149.1733021,684.02,14,-0.0020861271768808365,-0.05862421914935112,0.2573931813240051
1742741518.773515,-35.3613339,149.1733021,684.02,14,-0.0020861271768808365,-0.05862421914935112,0.2573931813240051
1742741518.8737502,-35.361285,149.1733176,684.04,14,-0.0025631256867200136,-0.054344553500413895,0.25729894638061523
1742741518.9739127,-35.361285,149.1733176,684.04,14,-0.0025631256867200136,-0.054344553500413895,0.25729894638061523
1742741519.074066,-35.3612323,149.1733343,684.08,14,-0.005924203433096409,-0.058798763900995255,0.25653550028800964
1742741519.174379,-35.3612323,149.1733343,684.08,14,-0.005924203433096409,-0.058798763900995255,0.25653550028800964
1742741519.2746723,-35.3612323,149.1733343,684.08,14,-0.005924203433096409,-0.058798763900995255,0.25653550028800964
1742741519.374868,-35.3611836,149.1733497,684.07,14,-0.006519214250147343,-0.06521681696176529,0.2557027339935303
1742741519.47513,-35.3611836,149.1733497,684.07,14,-0.006519214250147343,-0.06521681696176529,0.2557027339935303
1742741519.5753474,-35.3611306,149.1733664,684.04,14,-0.006948594003915787,-0.06247411668300629,0.25485959649086
1742741519.6755722,-35.3611306,149.1733664,684.04,14,-0.006948594003915787,-0.06247411668300629,0.25485959649086
1742741519.7757797,-35.3611306,149.1733664,684.04,14,-0.006948594003915787,-0.06247411668300629,0.25485959649086
1742741519.8759658,-35.3610814,149.1733819,684.03,14,-0.008500761352479458,-0.0562259703874588,0.2552303075790405
1742741519.9761376,-35.3610814,149.1733819,684.03,14,-0.008500761352479458,-0.0562259703874588,0.2552303075790405
1742741520.0762627,-35.3610279,149.1733987,684.06,14,-0.007133660838007927,-0.06119205430150032,0.25525525212287903
1742741520.1764398,-35.3610279,149.1733987,684.06,14,-0.007133660838007927,-0.06119205430150032,0.25525525212287903
1742741520.2766087,-35.3610279,149.1733987,684.06,14,-0.007133660838007927,-0.06119205430150032,0.25525525212287903
1742741520.3768675,-35.3609784,149.1734142,684.05,14,-0.005909636616706848,-0.06498155742883682,0.2551909387111664
1742741520.4770415,-35.3609784,149.1734142,684.05,14,-0.005909636616706848,-0.06498155742883682,0.2551909387111664
1742741520.5773098,-35.360925,149.1734309,684.03,14,-0.006784792523831129,-0.06000453606247902,0.255642831325531
1742741520.677579,-35.360925,149.1734309,684.03,14,-0.006784792523831129,-0.06000453606247902,0.255642831325531
1742741520.7778335,-35.360925,149.1734309,684.03,14,-0.006784792523831129,-0.06000453606247902,0.255642831325531
1742741520.8780978,-35.3608762,149.1734463,684.06,14,-0.006966743618249893,-0.056226979941129684,0.25489044189453125
1742741520.9783895,-35.3608762,149.1734463,684.06,14,-0.006966743618249893,-0.056226979941129684,0.25489044189453125
1742741521.0785487,-35.3608234,149.1734628,684.07,14,-0.009610719047486782,-0.06134147197008133,0.25403955578804016
1742741521.1788228,-35.3608234,149.1734628,684.07,14,-0.009610719047486782,-0.06134147197008133,0.25403955578804016
1742741521.2790103,-35.3608234,149.1734628,684.07,14,-0.009610719047486782,-0.06134147197008133,0.25403955578804016
1742741521.3792815,-35.3607746,149.173478,684.07,14,-0.011596180498600006,-0.06421976536512375,0.2532458007335663
1742741521.479458,-35.3607746,149.173478,684.07,14,-0.011596180498600006,-0.06421976536512375,0.2532458007335663
1742741521.5796077,-35.3607217,149.1734945,684.05,14,-0.010775471106171608,-0.06075151637196541,0.2507496476173401
1742741521.6797316,-35.3607217,149.1734945,684.05,14,-0.010775471106171608,-0.06075151637196541,0.2507496476173401
1742741521.7799704,-35.3607217,149.1734945,684.05,14,-0.010775471106171608,-0.06075151637196541,0.2507496476173401
1742741521.8800988,-35.3606723,149.1735097,684.06,14,-0.009410299360752106,-0.056287746876478195,0.2501640319824219
1742741521.980265,-35.3606723,149.1735097,684.06,14,-0.009410299360752106,-0.056287746876478195,0.2501640319824219
1742741522.0804188,-35.3606187,149.1735262,684.08,14,-0.007490172516554594,-0.060521531850099564,0.249653622508049
1742741522.1806011,-35.3606187,149.1735262,684.08,14,-0.007490172516554594,-0.060521531850099564,0.249653622508049
1742741522.2808456,-35.3606187,149.1735262,684.08,14,-0.007490172516554594,-0.060521531850099564,0.249653622508049
1742741522.380996,-35.3605691,149.1735415,684.07,14,-0.007276656571775675,-0.06474577635526657,0.24890880286693573
1742741522.481138,-35.3605691,149.1735415,684.07,14,-0.007276656571775675,-0.06474577635526657,0.24890880286693573
1742741522.5812898,-35.3605157,149.1735578,684.06,14,-0.007451717741787434,-0.06012267991900444,0.2482406497001648
1742741522.6814523,-35.3605157,149.1735578,684.06,14,-0.007451717741787434,-0.06012267991900444,0.2482406497001648
1742741522.7816164,-35.3605157,149.1735578,684.06,14,-0.007451717741787434,-0.06012267991900444,0.2482406497001648
1742741522.8817325,-35.3604667,149.1735727,684.08,14,-0.005810814443975687,-0.05721239000558853,0.24767564237117767
1742741522.981886,-35.3604667,149.1735727,684.08,14,-0.005810814443975687,-0.05721239000558853,0.24767564237117767
1742741523.0820339,-35.3604139,149.1735888,684.1,14,-0.004481463227421045,-0.061947938054800034,0.24822770059108734
1742741523.1822054,-35.3604139,149.1735888,684.1,14,-0.004481463227421045,-0.061947938054800034,0.24822770059108734
1742741523.2823853,-35.3604139,149.1735888,684.1,14,-0.004481463227421045,-0.061947938054800034,0.24822770059108734
1742741523.3826337,-35.3603651,149.1736037,684.08,14,-0.003820215119048953,-0.06624773889780045,0.24695566296577454
1742741523.482804,-35.3603651,149.1736037,684.08,14,-0.003820215119048953,-0.06624773889780045,0.24695566296577454
1742741523.5829456,-35.3603122,149.1736198,684.05,14,-0.003234769683331251,-0.06092469021677971,0.2475668042898178
1742741523.6831057,-35.3603122,149.1736198,684.05,14,-0.003234769683331251,-0.06092469021677971,0.2475668042898178
1742741523.7832668,-35.3603122,149.1736198,684.05,14,-0.003234769683331251,-0.06092469021677971,0.2475668042898178
1742741523.8835416,-35.3602631,149.1736348,684.04,14,-0.0030737649649381638,-0.0589156411588192,0.24740712344646454
1742741523.98371,-35.3602631,149.1736348,684.04,14,-0.0030737649649381638,-0.0589156411588192,0.24740712344646454
1742741524.0838392,-35.3602095,149.1736511,684.05,14,-0.0046166409738361835,-0.0607890821993351,0.24626977741718292
1742741524.1840112,-35.3602095,149.1736511,684.05,14,-0.0046166409738361835,-0.0607890821993351,0.24626977741718292
1742741524.2841847,-35.3602095,149.1736511,684.05,14,-0.0046166409738361835,-0.0607890821993351,0.24626977741718292
1742741524.38435,-35.3601599,149.1736662,684.04,14,-0.00618410762399435,-0.061909303069114685,0.24562209844589233
1742741524.484591,-35.3601599,149.1736662,684.04,14,-0.00618410762399435,-0.061909303069114685,0.24562209844589233
1742741524.5848358,-35.3601061,149.1736824,684.04,14,-0.004718782380223274,-0.060336820781230927,0.24469159543514252
1742741524.684975,-35.3601061,149.1736824,684.04,14,-0.004718782380223274,-0.060336820781230927,0.24469159543514252
1742741524.7851727,-35.3601061,149.1736824,684.04,14,-0.004718782380223274,-0.060336820781230927,0.24469159543514252
1742741524.8853216,-35.3600568,149.1736973,684.04,14,-0.0032689638901501894,-0.06044655665755272,0.24455207586288452
1742741524.985482,-35.3600568,149.1736973,684.04,14,-0.0032689638901501894,-0.06044655665755272,0.24455207586288452
1742741525.0856335,-35.3600037,149.1737133,684.04,14,-0.003630972234532237,-0.059805452823638916,0.24490158259868622
1742741525.1858244,-35.3600037,149.1737133,684.04,14,-0.003630972234532237,-0.059805452823638916,0.24490158259868622
1742741525.2859774,-35.3600037,149.1737133,684.04,14,-0.003630972234532237,-0.059805452823638916,0.24490158259868622
1742741525.3861299,-35.3599549,149.1737281,684.04,13,-0.0038276000414043665,-0.05953856185078621,0.24301370978355408
1742741525.4863927,-35.3599549,149.1737281,684.04,13,-0.0038276000414043665,-0.05953856185078621,0.24301370978355408
1742741525.5865464,-35.3599019,149.173744,684.04,13,-0.0011065583676099777,-0.060686685144901276,0.24268506467342377
1742741525.686796,-35.3599019,149.173744,684.04,13,-0.0011065583676099777,-0.060686685144901276,0.24268506467342377
1742741525.7870548,-35.3599019,149.173744,684.04,13,-0.0011065583676099777,-0.060686685144901276,0.24268506467342377
1742741525.8873374,-35.359853,149.1737587,684.04,13,-0.00018018887203652412,-0.06091676279902458,0.24317669868469238
1742741525.9875941,-35.359853,149.1737587,684.04,13,-0.00018018887203652412,-0.06091676279902458,0.24317669868469238
1742741526.0877345,-35.3597992,149.1737748,684.03,13,-0.0011495654471218586,-0.06099929288029671,0.24283401668071747
1742741526.1878774,-35.3597992,149.1737748,684.03,13,-0.0011495654471218586,-0.06099929288029671,0.24283401668071747
1742741526.2880197,-35.3597992,149.1737748,684.03,13,-0.0011495654471218586,-0.06099929288029671,0.24283401668071747
1742741526.3882887,-35.3597496,149.1737897,684.04,13,-0.0008255517459474504,-0.06019311025738716,0.24253885447978973
1742741526.4884288,-35.3597496,149.1737897,684.04,13,-0.0008255517459474504,-0.06019311025738716,0.24253885447978973
1742741526.5885966,-35.3596958,149.1738058,684.04,13,-0.00232482748106122,-0.06089852750301361,0.24253202974796295
1742741526.6887279,-35.3596958,149.1738058,684.04,13,-0.00232482748106122,-0.06089852750301361,0.24253202974796295
1742741526.788872,-35.3596958,149.1738058,684.04,13,-0.00232482748106122,-0.06089852750301361,0.24253202974796295
1742741526.8890243,-35.3596465,149.1738205,684.05,13,6.553085404448211e-05,-0.06092815101146698,0.24236942827701569
1742741526.9892175,-35.3596465,149.1738205,684.05,13,6.553085404448211e-05,-0.06092815101146698,0.24236942827701569
1742741527.0893986,-35.3595934,149.1738364,684.06,13,0.00039998351712711155,-0.05967425927519798,0.24186231195926666
1742741527.1895547,-35.3595934,149.1738364,684.06,13,0.00039998351712711155,-0.05967425927519798,0.24186231195926666
1742741527.2897303,-35.3595934,149.1738364,684.06,13,0.00039998351712711155,-0.05967425927519798,0.24186231195926666
1742741527.3898833,-35.3595445,149.173851,684.07,13,7.513767195632681e-05,-0.05940776318311691,0.2414289116859436
1742741527.4900656,-35.3595445,149.173851,684.07,13,7.513767195632681e-05,-0.05940776318311691,0.2414289116859436
1742741527.5902474,-35.3594916,149.1738669,684.07,13,0.0021487853955477476,-0.060527924448251724,0.24220775067806244
1742741527.6903875,-35.3594916,149.1738669,684.07,13,0.0021487853955477476,-0.060527924448251724,0.24220775067806244
1742741527.790544,-35.3594916,149.1738669,684.07,13,0.0021487853955477476,-0.060527924448251724,0.24220775067806244
1742741527.8907635,-35.3594426,149.1738815,684.07,13,0.0027433547656983137,-0.06129841506481171,0.24142494797706604
1742741527.9908733,-35.3594426,149.1738815,684.07,13,0.0027433547656983137,-0.06129841506481171,0.24142494797706604
1742741528.0911427,-35.3593893,149.1738975,684.06,13,0.0007353202090598643,-0.06265988945960999,0.2440587878227234
1742741528.191389,-35.3593893,149.1738975,684.06,13,0.0007353202090598643,-0.06265988945960999,0.2440587878227234
1742741528.2916458,-35.3593893,149.1738975,684.06,13,0.0007353202090598643,-0.06265988945960999,0.2440587878227234
1742741528.39181,-35.3593398,149.1739124,684.05,13,0.002078273333609104,-0.06088174134492874,0.24323615431785583
1742741528.4919753,-35.3593398,149.1739124,684.05,13,0.002078273333609104,-0.06088174134492874,0.24323615431785583
1742741528.592138,-35.359286,149.1739286,684.07,13,0.0014484967105090618,-0.05803757533431053,0.24244974553585052
1742741528.692414,-35.359286,149.1739286,684.07,13,0.0014484967105090618,-0.05803757533431053,0.24244974553585052
1742741528.7925532,-35.359286,149.1739286,684.07,13,0.0014484967105090618,-0.05803757533431053,0.24244974553585052
1742741528.8927827,-35.3592364,149.1739436,684.08,13,0.0005836813361383975,-0.060455724596977234,0.24251319468021393
1742741528.9929564,-35.3592364,149.1739436,684.08,13,0.0005836813361383975,-0.060455724596977234,0.24251319468021393
1742741529.0932016,-35.3591831,149.1739596,684.09,13,0.0002153061650460586,-0.06238202005624771,0.2424919754266739
1742741529.1934414,-35.3591831,149.1739596,684.09,13,0.0002153061650460586,-0.06238202005624771,0.2424919754266739
1742741529.2936833,-35.3591831,149.1739596,684.09,13,0.0002153061650460586,-0.06238202005624771,0.2424919754266739
