Time,Lat,Lon,Alt,Roll,Pitch,Yaw
1741112964.5798867,-35.3598886,149.1621231,683.85,0.4556152820587158,-0.015675721690058708,-2.7119507789611816
1741112964.6799839,-35.3598886,149.1621231,683.85,0.4556152820587158,-0.015675721690058708,-2.7119507789611816
1741112964.780119,-35.3598886,149.1621231,683.85,0.4556152820587158,-0.015675721690058708,-2.7119507789611816
1741112964.8802626,-35.3599355,149.1620941,683.68,0.6293564438819885,-0.024943159893155098,-2.665937900543213
1741112964.9804933,-35.3599355,149.1620941,683.68,0.6293564438819885,-0.024943159893155098,-2.665937900543213
1741112965.0807474,-35.3599778,149.1620643,683.44,0.7542131543159485,-0.03444138169288635,-2.6016807556152344
1741112965.1809862,-35.3599778,149.1620643,683.44,0.7542131543159485,-0.03444138169288635,-2.6016807556152344
1741112965.2811184,-35.3599778,149.1620643,683.44,0.7542131543159485,-0.03444138169288635,-2.6016807556152344
1741112965.3813632,-35.3600219,149.1620275,683.1,0.8337125182151794,-0.037499669939279556,-2.5036380290985107
1741112965.4814925,-35.3600219,149.1620275,683.1,0.8337125182151794,-0.037499669939279556,-2.5036380290985107
1741112965.581725,-35.3600602,149.1619882,682.77,0.8633133769035339,-0.02666500210762024,-2.3872182369232178
1741112965.681967,-35.3600602,149.1619882,682.77,0.8633133769035339,-0.02666500210762024,-2.3872182369232178
1741112965.7821019,-35.3600602,149.1619882,682.77,0.8633133769035339,-0.02666500210762024,-2.3872182369232178
1741112965.8822505,-35.3600978,149.1619387,682.51,0.8632833361625671,0.0012276817578822374,-2.2408711910247803
1741112965.98239,-35.3600978,149.1619387,682.51,0.8632833361625671,0.0012276817578822374,-2.2408711910247803
1741112966.082507,-35.3601273,149.1618868,682.44,0.8427629470825195,0.036413539201021194,-2.099619150161743
1741112966.1827445,-35.3601273,149.1618868,682.44,0.8427629470825195,0.036413539201021194,-2.099619150161743
1741112966.2828774,-35.3601273,149.1618868,682.44,0.8427629470825195,0.036413539201021194,-2.099619150161743
1741112966.3831167,-35.3601525,149.1618251,682.63,0.7989352345466614,0.0748869776725769,-1.9557175636291504
1741112966.4833543,-35.3601525,149.1618251,682.63,0.7989352345466614,0.0748869776725769,-1.9557175636291504
1741112966.583593,-35.3601696,149.1617649,683.04,0.7335454225540161,0.10198156535625458,-1.8432104587554932
1741112966.6838925,-35.3601696,149.1617649,683.04,0.7335454225540161,0.10198156535625458,-1.8432104587554932
1741112966.7841303,-35.3601696,149.1617649,683.04,0.7335454225540161,0.10198156535625458,-1.8432104587554932
1741112966.8842793,-35.3601821,149.161698,683.67,0.6325870752334595,0.11485852301120758,-1.749971866607666
1741112966.9844518,-35.3601821,149.161698,683.67,0.6325870752334595,0.11485852301120758,-1.749971866607666
1741112967.084595,-35.3601896,149.1616361,684.32,0.5173173546791077,0.10833827406167984,-1.689235806465149
1741112967.184727,-35.3601896,149.1616361,684.32,0.5173173546791077,0.10833827406167984,-1.689235806465149
1741112967.284896,-35.3601896,149.1616361,684.32,0.5173173546791077,0.10833827406167984,-1.689235806465149
1741112967.385132,-35.3601949,149.1615696,685.0,0.38452163338661194,0.08266273885965347,-1.6443161964416504
1741112967.4853835,-35.3601949,149.1615696,685.0,0.38452163338661194,0.08266273885965347,-1.6443161964416504
1741112967.5855262,-35.360198,149.1615089,685.48,0.27016833424568176,0.048136379569768906,-1.6152435541152954
1741112967.6856577,-35.360198,149.1615089,685.48,0.27016833424568176,0.048136379569768906,-1.6152435541152954
1741112967.7858312,-35.360198,149.1615089,685.48,0.27016833424568176,0.048136379569768906,-1.6152435541152954
1741112967.885942,-35.3602002,149.1614443,685.79,0.1663026511669159,0.007622627541422844,-1.592484712600708
1741112967.9861689,-35.3602002,149.1614443,685.79,0.1663026511669159,0.007622627541422844,-1.592484712600708
1741112968.0863101,-35.3602014,149.1613854,685.86,0.09144569933414459,-0.025298479944467545,-1.5774891376495361
1741112968.186485,-35.3602014,149.1613854,685.86,0.09144569933414459,-0.025298479944467545,-1.5774891376495361
1741112968.2866316,-35.3602014,149.1613854,685.86,0.09144569933414459,-0.025298479944467545,-1.5774891376495361
1741112968.3867629,-35.3602023,149.1613222,685.74,0.030497394502162933,-0.050009556114673615,-1.5668213367462158
1741112968.4868834,-35.3602023,149.1613222,685.74,0.030497394502162933,-0.050009556114673615,-1.5668213367462158
1741112968.5869896,-35.3602027,149.1612643,685.51,-0.011277224868535995,-0.05916956439614296,-1.5617889165878296
1741112968.6871128,-35.3602027,149.1612643,685.51,-0.011277224868535995,-0.05916956439614296,-1.5617889165878296
1741112968.7872298,-35.3602027,149.1612643,685.51,-0.011277224868535995,-0.05916956439614296,-1.5617889165878296
1741112968.8873453,-35.3602031,149.1612016,685.21,-0.04489445313811302,-0.05537670850753784,-1.5611207485198975
1741112968.9874725,-35.3602031,149.1612016,685.21,-0.04489445313811302,-0.05537670850753784,-1.5611207485198975
1741112969.087565,-35.3602035,149.1611437,684.95,-0.06790806353092194,-0.04391878843307495,-1.564137578010559
1741112969.1876795,-35.3602035,149.1611437,684.95,-0.06790806353092194,-0.04391878843307495,-1.564137578010559
1741112969.2877996,-35.3602035,149.1611437,684.95,-0.06790806353092194,-0.04391878843307495,-1.564137578010559
1741112969.3879,-35.3602041,149.1610807,684.74,-0.08591335266828537,-0.029850022867321968,-1.5701168775558472
1741112969.4880295,-35.3602041,149.1610807,684.74,-0.08591335266828537,-0.029850022867321968,-1.5701168775558472
1741112969.5881488,-35.360205,149.1610224,684.61,-0.09712791442871094,-0.020616549998521805,-1.5770025253295898
1741112969.6882768,-35.360205,149.1610224,684.61,-0.09712791442871094,-0.020616549998521805,-1.5770025253295898
1741112969.7884197,-35.360205,149.1610224,684.61,-0.09712791442871094,-0.020616549998521805,-1.5770025253295898
1741112969.888664,-35.3602064,149.1609591,684.53,-0.10400570183992386,-0.017125315964221954,-1.584982991218567
1741112969.9889042,-35.3602064,149.1609591,684.53,-0.10400570183992386,-0.017125315964221954,-1.584982991218567
1741112970.0890272,-35.3602081,149.1609006,684.47,-0.10582447797060013,-0.018988963216543198,-1.59237802028656
1741112970.1891477,-35.3602081,149.1609006,684.47,-0.10582447797060013,-0.018988963216543198,-1.59237802028656
1741112970.289262,-35.3602081,149.1609006,684.47,-0.10582447797060013,-0.018988963216543198,-1.59237802028656
1741112970.3894477,-35.3602102,149.1608372,684.38,-0.10410869866609573,-0.023528868332505226,-1.600322961807251
1741112970.4895957,-35.3602102,149.1608372,684.38,-0.10410869866609573,-0.023528868332505226,-1.600322961807251
1741112970.589745,-35.3602126,149.1607786,684.28,-0.10051805526018143,-0.0268123596906662,-1.6077269315719604
1741112970.6900012,-35.3602126,149.1607786,684.28,-0.10051805526018143,-0.0268123596906662,-1.6077269315719604
1741112970.7901492,-35.3602126,149.1607786,684.28,-0.10051805526018143,-0.0268123596906662,-1.6077269315719604
1741112970.890275,-35.3602155,149.160715,684.16,-0.09584688395261765,-0.0269978865981102,-1.6158156394958496
1741112970.9903815,-35.3602155,149.160715,684.16,-0.09584688395261765,-0.0269978865981102,-1.6158156394958496
1741112971.0905411,-35.3602185,149.1606562,684.05,-0.0912744328379631,-0.02388247288763523,-1.62321138381958
1741112971.1906571,-35.3602185,149.1606562,684.05,-0.0912744328379631,-0.02388247288763523,-1.62321138381958
1741112971.2907972,-35.3602185,149.1606562,684.05,-0.0912744328379631,-0.02388247288763523,-1.62321138381958
1741112971.3910675,-35.3602222,149.1605922,683.96,-0.08620674163103104,-0.018659695982933044,-1.6308515071868896
1741112971.4912112,-35.3602222,149.1605922,683.96,-0.08620674163103104,-0.018659695982933044,-1.6308515071868896
1741112971.591331,-35.360226,149.1605331,683.9,-0.08144574612379074,-0.01392307784408331,-1.637250542640686
1741112971.6914446,-35.360226,149.1605331,683.9,-0.08144574612379074,-0.01392307784408331,-1.637250542640686
1741112971.7915325,-35.360226,149.1605331,683.9,-0.08144574612379074,-0.01392307784408331,-1.637250542640686
1741112971.8917468,-35.3602304,149.1604689,683.85,-0.07621727138757706,-0.010482890531420708,-1.6435470581054688
1741112971.9921277,-35.3602304,149.1604689,683.85,-0.07621727138757706,-0.010482890531420708,-1.6435470581054688
1741112972.0922751,-35.3602347,149.1604095,683.83,-0.07182516157627106,-0.009458590298891068,-1.6488054990768433
1741112972.1925185,-35.3602347,149.1604095,683.83,-0.07182516157627106,-0.009458590298891068,-1.6488054990768433
1741112972.2927709,-35.3602347,149.1604095,683.83,-0.07182516157627106,-0.009458590298891068,-1.6488054990768433
1741112972.3929036,-35.3602347,149.1604095,683.83,-0.06729859113693237,-0.009939300827682018,-1.6538722515106201
1741112972.493139,-35.3602347,149.1604095,683.83,-0.06729859113693237,-0.009939300827682018,-1.6538722515106201
1741112972.5932825,-35.3602347,149.1604095,683.83,-0.06329335272312164,-0.010662195272743702,-1.658074975013733
1741112972.693412,-35.3602466,149.1602609,683.79,-0.06329335272312164,-0.010662195272743702,-1.658074975013733
1741112972.7935708,-35.3602466,149.1602609,683.79,-0.06329335272312164,-0.010662195272743702,-1.658074975013733
1741112972.893813,-35.3602466,149.1602609,683.79,-0.05927456170320511,-0.010779201053082943,-1.6622189283370972
1741112972.9939997,-35.3602466,149.1602609,683.79,-0.05927456170320511,-0.010779201053082943,-1.6622189283370972
1741112973.0941505,-35.3602466,149.1602609,683.79,-0.05602032691240311,-0.00998069066554308,-1.6658985614776611
1741112973.1943152,-35.3602574,149.1601368,683.75,-0.05602032691240311,-0.00998069066554308,-1.6658985614776611
1741112973.2944784,-35.3602574,149.1601368,683.75,-0.05602032691240311,-0.00998069066554308,-1.6658985614776611
1741112973.3947222,-35.3602574,149.1601368,683.75,-0.05300718918442726,-0.008266547694802284,-1.6695080995559692
1741112973.4949627,-35.3602574,149.1601368,683.75,-0.05300718918442726,-0.008266547694802284,-1.6695080995559692
1741112973.595106,-35.3602574,149.1601368,683.75,-0.05061998590826988,-0.006390428636223078,-1.6724251508712769
1741112973.69525,-35.3602689,149.1600123,683.73,-0.05061998590826988,-0.006390428636223078,-1.6724251508712769
1741112973.7954965,-35.3602689,149.1600123,683.73,-0.05061998590826988,-0.006390428636223078,-1.6724251508712769
1741112973.8956351,-35.3602689,149.1600123,683.73,-0.04812169447541237,-0.004893356002867222,-1.6753339767456055
1741112973.9957743,-35.3602689,149.1600123,683.73,-0.04812169447541237,-0.004893356002867222,-1.6753339767456055
1741112974.0958886,-35.3602689,149.1600123,683.73,-0.046147093176841736,-0.004287129733711481,-1.677858591079712
1741112974.1960115,-35.360281,149.1598877,683.74,-0.046147093176841736,-0.004287129733711481,-1.677858591079712
1741112974.2961307,-35.360281,149.1598877,683.74,-0.046147093176841736,-0.004287129733711481,-1.677858591079712
1741112974.396253,-35.360281,149.1598877,683.74,-0.04439790919423103,-0.004186365287750959,-1.6803700923919678
1741112974.4963715,-35.360281,149.1598877,683.74,-0.04439790919423103,-0.004186365287750959,-1.6803700923919678
1741112974.596623,-35.360281,149.1598877,683.74,-0.042829547077417374,-0.004320107866078615,-1.6824798583984375
1741112974.6967666,-35.3602937,149.159763,683.75,-0.042829547077417374,-0.004320107866078615,-1.6824798583984375
1741112974.7968771,-35.3602937,149.159763,683.75,-0.042829547077417374,-0.004320107866078615,-1.6824798583984375
1741112974.8969944,-35.3602937,149.159763,683.75,-0.04104207456111908,-0.004174308851361275,-1.6846058368682861
1741112974.9971976,-35.3602937,149.159763,683.75,-0.04104207456111908,-0.004174308851361275,-1.6846058368682861
1741112975.0974429,-35.3603041,149.1596631,683.75,-0.03950130194425583,-0.003549969056621194,-1.686389684677124
1741112975.1976285,-35.3603041,149.1596631,683.75,-0.03950130194425583,-0.003549969056621194,-1.686389684677124
1741112975.297876,-35.3603041,149.1596631,683.75,-0.03950130194425583,-0.003549969056621194,-1.686389684677124
1741112975.3979518,-35.360311,149.1595982,683.76,-0.03819209337234497,-0.002703166101127863,-1.6880576610565186
1741112975.498076,-35.360311,149.1595982,683.76,-0.03819209337234497,-0.002703166101127863,-1.6880576610565186
1741112975.5982046,-35.3603174,149.1595382,683.77,-0.03708039969205856,-0.0021284797694534063,-1.6895040273666382
1741112975.698325,-35.3603174,149.1595382,683.77,-0.03708039969205856,-0.0021284797694534063,-1.6895040273666382
1741112975.7984412,-35.3603174,149.1595382,683.77,-0.03708039969205856,-0.0021284797694534063,-1.6895040273666382
1741112975.8985646,-35.3603245,149.1594732,683.79,-0.03590121492743492,-0.0018584580393508077,-1.6909799575805664
1741112975.9987195,-35.3603245,149.1594732,683.79,-0.03590121492743492,-0.0018584580393508077,-1.6909799575805664
1741112976.098829,-35.3603311,149.1594133,683.81,-0.034811459481716156,-0.0017521268455311656,-1.692215085029602
1741112976.1989672,-35.3603311,149.1594133,683.81,-0.034811459481716156,-0.0017521268455311656,-1.692215085029602
1741112976.2990878,-35.3603311,149.1594133,683.81,-0.034811459481716156,-0.0017521268455311656,-1.692215085029602
1741112976.3992245,-35.3603383,149.1593483,683.83,-0.033873990178108215,-0.0018201468046754599,-1.6934894323349
1741112976.499369,-35.3603383,149.1593483,683.83,-0.033873990178108215,-0.0018201468046754599,-1.6934894323349
1741112976.5995104,-35.3603449,149.1592883,683.85,-0.03338959068059921,-0.0018233961891382933,-1.6946138143539429
1741112976.6996543,-35.3603449,149.1592883,683.85,-0.03338959068059921,-0.0018233961891382933,-1.6946138143539429
1741112976.7997627,-35.3603449,149.1592883,683.85,-0.03338959068059921,-0.0018233961891382933,-1.6946138143539429
1741112976.8998961,-35.3603523,149.1592233,683.87,-0.032926008105278015,-0.002056423807516694,-1.6957217454910278
1741112977.0000093,-35.3603523,149.1592233,683.87,-0.032926008105278015,-0.002056423807516694,-1.6957217454910278
1741112977.1001172,-35.3603591,149.1591633,683.89,-0.03229815512895584,-0.0022877261508256197,-1.696727991104126
1741112977.2002409,-35.3603591,149.1591633,683.89,-0.03229815512895584,-0.0022877261508256197,-1.696727991104126
1741112977.300389,-35.3603591,149.1591633,683.89,-0.03229815512895584,-0.0022877261508256197,-1.696727991104126
1741112977.400626,-35.3603665,149.1590984,683.91,-0.031517624855041504,-0.00225654779933393,-1.6977459192276
1741112977.5009046,-35.3603665,149.1590984,683.91,-0.031517624855041504,-0.00225654779933393,-1.6977459192276
1741112977.6011496,-35.3603734,149.1590384,683.93,-0.030809031799435616,-0.0022035224828869104,-1.6985987424850464
1741112977.7013924,-35.3603734,149.1590384,683.93,-0.030809031799435616,-0.0022035224828869104,-1.6985987424850464
1741112977.8016472,-35.3603734,149.1590384,683.93,-0.030809031799435616,-0.0022035224828869104,-1.6985987424850464
1741112977.901778,-35.3603809,149.1589734,683.95,-0.030119506642222404,-0.0022464999929070473,-1.6994301080703735
1741112978.0018873,-35.3603809,149.1589734,683.95,-0.030119506642222404,-0.0022464999929070473,-1.6994301080703735
1741112978.1019979,-35.3603879,149.1589135,683.96,-0.029489388689398766,-0.0020736055448651314,-1.7001371383666992
1741112978.2021117,-35.3603879,149.1589135,683.96,-0.029489388689398766,-0.0020736055448651314,-1.7001371383666992
1741112978.3022394,-35.3603879,149.1589135,683.96,-0.029489388689398766,-0.0020736055448651314,-1.7001371383666992
1741112978.4023564,-35.3603955,149.1588485,683.98,-0.02877930924296379,-0.001975810853764415,-1.7008451223373413
1741112978.5024898,-35.3603955,149.1588485,683.98,-0.02877930924296379,-0.001975810853764415,-1.7008451223373413
1741112978.6026175,-35.3604026,149.1587886,684.0,-0.02807965874671936,-0.002120440360158682,-1.7014127969741821
1741112978.702735,-35.3604026,149.1587886,684.0,-0.02807965874671936,-0.002120440360158682,-1.7014127969741821
1741112978.8028507,-35.3604026,149.1587886,684.0,-0.02807965874671936,-0.002120440360158682,-1.7014127969741821
1741112978.9029636,-35.3604102,149.1587237,684.02,-0.027270331978797913,-0.0023790046107023954,-1.7019528150558472
1741112979.0032153,-35.3604102,149.1587237,684.02,-0.027270331978797913,-0.0023790046107023954,-1.7019528150558472
1741112979.1033273,-35.3604173,149.1586638,684.04,-0.02651119977235794,-0.002621459076181054,-1.7023797035217285
1741112979.2035475,-35.3604173,149.1586638,684.04,-0.02651119977235794,-0.002621459076181054,-1.7023797035217285
1741112979.3036928,-35.3604173,149.1586638,684.04,-0.02651119977235794,-0.002621459076181054,-1.7023797035217285
1741112979.403821,-35.360425,149.1585989,684.05,-0.02588498219847679,-0.0026419253554195166,-1.7027060985565186
1741112979.5039592,-35.360425,149.1585989,684.05,-0.02588498219847679,-0.0026419253554195166,-1.7027060985565186
1741112979.6041844,-35.3604322,149.158539,684.07,-0.02561604604125023,-0.0025594562757760286,-1.7028597593307495
1741112979.7043374,-35.3604322,149.158539,684.07,-0.02561604604125023,-0.0025594562757760286,-1.7028597593307495
1741112979.8046,-35.3604322,149.158539,684.07,-0.02561604604125023,-0.0025594562757760286,-1.7028597593307495
1741112979.9047515,-35.3604399,149.1584742,684.08,-0.025382639840245247,-0.0025370195508003235,-1.7030563354492188
1741112980.004899,-35.3604399,149.1584742,684.08,-0.025382639840245247,-0.0025370195508003235,-1.7030563354492188
1741112980.1050968,-35.360447,149.1584144,684.1,-0.025250274688005447,-0.0028043778147548437,-1.7032434940338135
1741112980.2052448,-35.360447,149.1584144,684.1,-0.025250274688005447,-0.0028043778147548437,-1.7032434940338135
1741112980.3053586,-35.360447,149.1584144,684.1,-0.025250274688005447,-0.0028043778147548437,-1.7032434940338135
1741112980.4055643,-35.3604548,149.1583496,684.11,-0.025171354413032532,-0.0034555213060230017,-1.7033926248550415
1741112980.505808,-35.3604548,149.1583496,684.11,-0.025171354413032532,-0.0034555213060230017,-1.7033926248550415
1741112980.606078,-35.3604619,149.1582897,684.13,-0.025077616795897484,-0.003903161035850644,-1.7035181522369385
1741112980.7062259,-35.3604619,149.1582897,684.13,-0.025077616795897484,-0.003903161035850644,-1.7035181522369385
1741112980.8063765,-35.3604619,149.1582897,684.13,-0.025077616795897484,-0.003903161035850644,-1.7035181522369385
1741112980.9066172,-35.3604697,149.1582249,684.13,-0.024925680831074715,-0.0039017884992063046,-1.7036818265914917
1741112981.0067642,-35.3604697,149.1582249,684.13,-0.024925680831074715,-0.0039017884992063046,-1.7036818265914917
1741112981.1068954,-35.3604768,149.1581652,684.14,-0.02494378760457039,-0.0035693764220923185,-1.7039101123809814
1741112981.207027,-35.3604768,149.1581652,684.14,-0.02494378760457039,-0.0035693764220923185,-1.7039101123809814
1741112981.307148,-35.3604768,149.1581652,684.14,-0.02494378760457039,-0.0035693764220923185,-1.7039101123809814
1741112981.4072685,-35.3604846,149.1581004,684.15,-0.025079192593693733,-0.003144143847748637,-1.7042704820632935
1741112981.5075054,-35.3604846,149.1581004,684.15,-0.025079192593693733,-0.003144143847748637,-1.7042704820632935
1741112981.6076694,-35.3604918,149.1580407,684.17,-0.025068962946534157,-0.002863351721316576,-1.704578161239624
1741112981.707917,-35.3604918,149.1580407,684.17,-0.025068962946534157,-0.002863351721316576,-1.704578161239624
1741112981.8080633,-35.3604918,149.1580407,684.17,-0.025068962946534157,-0.002863351721316576,-1.704578161239624
1741112981.9081593,-35.3604996,149.1579759,684.18,-0.024974841624498367,-0.0030384440906345844,-1.7046386003494263
1741112982.0082674,-35.3604996,149.1579759,684.18,-0.024974841624498367,-0.0030384440906345844,-1.7046386003494263
1741112982.1084108,-35.3605068,149.1579162,684.2,-0.02479786053299904,-0.003674263134598732,-1.7046303749084473
1741112982.2085347,-35.3605068,149.1579162,684.2,-0.02479786053299904,-0.003674263134598732,-1.7046303749084473
1741112982.3086493,-35.3605068,149.1579162,684.2,-0.02479786053299904,-0.003674263134598732,-1.7046303749084473
1741112982.408947,-35.3605146,149.1578516,684.21,-0.024623068049550056,-0.004441798664629459,-1.7048208713531494
1741112982.509079,-35.3605146,149.1578516,684.21,-0.024623068049550056,-0.004441798664629459,-1.7048208713531494
1741112982.6091926,-35.3605218,149.1577919,684.22,-0.04301953315734863,-0.0048803482204675674,-1.7041782140731812
1741112982.709458,-35.3605218,149.1577919,684.22,-0.04301953315734863,-0.0048803482204675674,-1.7041782140731812
1741112982.8096232,-35.3605298,149.1577272,684.21,-0.16551603376865387,-0.004319821484386921,-1.7002055644989014
1741112982.9098527,-35.3605298,149.1577272,684.21,-0.16551603376865387,-0.004319821484386921,-1.7002055644989014
1741112983.0101252,-35.3605298,149.1577272,684.21,-0.16551603376865387,-0.004319821484386921,-1.7002055644989014
1741112983.110267,-35.3605378,149.1576677,684.19,-0.32616981863975525,-0.00444035092368722,-1.7062525749206543
1741112983.210521,-35.3605378,149.1576677,684.19,-0.32616981863975525,-0.00444035092368722,-1.7062525749206543
1741112983.3106844,-35.3605476,149.1576036,684.13,-0.5188561677932739,-0.009743566624820232,-1.7322746515274048
1741112983.4108088,-35.3605476,149.1576036,684.13,-0.5188561677932739,-0.009743566624820232,-1.7322746515274048
1741112983.510946,-35.3605476,149.1576036,684.13,-0.5188561677932739,-0.009743566624820232,-1.7322746515274048
1741112983.6110702,-35.3605585,149.1575447,683.97,-0.7032665014266968,-0.018959563225507736,-1.7748926877975464
1741112983.7112062,-35.3605585,149.1575447,683.97,-0.7032665014266968,-0.018959563225507736,-1.7748926877975464
1741112983.8113256,-35.3605733,149.1574815,683.69,-0.867378830909729,-0.03109409660100937,-1.848960518836975
1741112983.9114575,-35.3605733,149.1574815,683.69,-0.867378830909729,-0.03109409660100937,-1.848960518836975
1741112984.0116253,-35.3605733,149.1574815,683.69,-0.867378830909729,-0.03109409660100937,-1.848960518836975
1741112984.1118486,-35.360591,149.1574239,683.32,-0.9635315537452698,-0.03907325118780136,-1.9524258375167847
1741112984.2122533,-35.360591,149.1574239,683.32,-0.9635315537452698,-0.03907325118780136,-1.9524258375167847
1741112984.3123822,-35.3606163,149.1573635,682.87,-1.015573501586914,-0.034228600561618805,-2.1079890727996826
1741112984.4125,-35.3606163,149.1573635,682.87,-1.015573501586914,-0.034228600561618805,-2.1079890727996826
1741112984.5126064,-35.3606163,149.1573635,682.87,-1.015573501586914,-0.034228600561618805,-2.1079890727996826
1741112984.6127398,-35.3606473,149.1573115,682.5,-1.0305284261703491,-0.011346674524247646,-2.2892987728118896
1741112984.7128892,-35.3606473,149.1573115,682.5,-1.0305284261703491,-0.011346674524247646,-2.2892987728118896
1741112984.8130658,-35.3606901,149.157263,682.3,-1.0233606100082397,0.03231343254446983,-2.5133485794067383
1741112984.9131591,-35.3606901,149.157263,682.3,-1.0233606100082397,0.03231343254446983,-2.5133485794067383
1741112985.0133123,-35.3606901,149.157263,682.3,-1.0233606100082397,0.03231343254446983,-2.5133485794067383
1741112985.1134534,-35.3607374,149.1572291,682.39,-0.9958029985427856,0.08346638828516006,-2.7254059314727783
1741112985.2135828,-35.3607374,149.1572291,682.39,-0.9958029985427856,0.08346638828516006,-2.7254059314727783
1741112985.3137016,-35.3607942,149.1572064,682.88,-0.9290176033973694,0.1410929411649704,-2.9338228702545166
1741112985.4139283,-35.3607942,149.1572064,682.88,-0.9290176033973694,0.1410929411649704,-2.9338228702545166
1741112985.5140646,-35.3607942,149.1572064,682.88,-0.9290176033973694,0.1410929411649704,-2.9338228702545166
1741112985.614187,-35.3608485,149.157198,683.7,-0.8281411528587341,0.18618735671043396,-3.083784580230713
1741112985.7143056,-35.3608485,149.157198,683.7,-0.8281411528587341,0.18618735671043396,-3.083784580230713
1741112985.8143988,-35.3609067,149.1571991,684.88,-0.6910577416419983,0.20892059803009033,3.094944715499878
1741112985.9145,-35.3609067,149.1571991,684.88,-0.6910577416419983,0.20892059803009033,3.094944715499878
1741112986.014618,-35.3609067,149.1571991,684.88,-0.6910577416419983,0.20892059803009033,3.094944715499878
1741112986.114745,-35.3609586,149.1572055,686.05,-0.5455273985862732,0.19475822150707245,3.0430920124053955
1741112986.2150073,-35.3609586,149.1572055,686.05,-0.5455273985862732,0.19475822150707245,3.0430920124053955
1741112986.3152978,-35.3610128,149.157215,687.17,-0.3734548091888428,0.14594747126102448,3.0131046772003174
1741112986.4153922,-35.3610128,149.157215,687.17,-0.3734548091888428,0.14594747126102448,3.0131046772003174
1741112986.5156288,-35.3610128,149.157215,687.17,-0.3734548091888428,0.14594747126102448,3.0131046772003174
1741112986.615744,-35.3610613,149.1572246,687.91,-0.20494453608989716,0.08081204444169998,2.994781970977783
1741112986.715849,-35.3610613,149.1572246,687.91,-0.20494453608989716,0.08081204444169998,2.994781970977783
1741112986.8159378,-35.3611124,149.1572352,688.3,-0.013956403359770775,-0.000532965234015137,2.9778425693511963
1741112986.9160151,-35.3611124,149.1572352,688.3,-0.013956403359770775,-0.000532965234015137,2.9778425693511963
1741112987.0161357,-35.3611124,149.1572352,688.3,-0.013956403359770775,-0.000532965234015137,2.9778425693511963
1741112987.116242,-35.3611584,149.1572448,688.24,0.14909981191158295,-0.07065005600452423,2.966176986694336
1741112987.216353,-35.3611584,149.1572448,688.24,0.14909981191158295,-0.07065005600452423,2.966176986694336
1741112987.3164449,-35.3612074,149.1572548,687.77,0.27967941761016846,-0.12612780928611755,2.9685657024383545
1741112987.4165285,-35.3612074,149.1572548,687.77,0.27967941761016846,-0.12612780928611755,2.9685657024383545
1741112987.5166218,-35.3612074,149.1572548,687.77,0.27967941761016846,-0.12612780928611755,2.9685657024383545
1741112987.6167448,-35.3612522,149.1572632,687.07,0.3519458472728729,-0.15151183307170868,2.99127197265625
1741112987.716886,-35.3612522,149.1572632,687.07,0.3519458472728729,-0.15151183307170868,2.99127197265625
1741112987.8169763,-35.361301,149.1572706,686.18,0.3841235339641571,-0.14692412316799164,3.0370118618011475
1741112987.9170682,-35.361301,149.1572706,686.18,0.3841235339641571,-0.14692412316799164,3.0370118618011475
1741112988.0171883,-35.361301,149.1572706,686.18,0.3841235339641571,-0.14692412316799164,3.0370118618011475
1741112988.1173184,-35.3613468,149.157275,685.38,0.3804999589920044,-0.11661861091852188,3.091776132583618
1741112988.21743,-35.3613468,149.157275,685.38,0.3804999589920044,-0.11661861091852188,3.091776132583618
1741112988.3175538,-35.3613975,149.1572764,684.71,0.3496869206428528,-0.06794121861457825,-3.1293222904205322
1741112988.4176586,-35.3613975,149.1572764,684.71,0.3496869206428528,-0.06794121861457825,-3.1293222904205322
1741112988.5177867,-35.3613975,149.1572764,684.71,0.3496869206428528,-0.06794121861457825,-3.1293222904205322
1741112988.6178873,-35.361445,149.1572746,684.33,0.30222904682159424,-0.024106742814183235,-3.078573226928711
1741112988.7180414,-35.361445,149.1572746,684.33,0.30222904682159424,-0.024106742814183235,-3.078573226928711
1741112988.818158,-35.3614968,149.1572698,684.19,0.2361806184053421,0.007007000036537647,-3.0366051197052
1741112988.9182441,-35.3614968,149.1572698,684.19,0.2361806184053421,0.007007000036537647,-3.0366051197052
1741112989.0184808,-35.3614968,149.1572698,684.19,0.2361806184053421,0.007007000036537647,-3.0366051197052
1741112989.1186767,-35.3615445,149.1572633,684.21,0.16885429620742798,0.014497530646622181,-3.010097026824951
1741112989.2188346,-35.3615445,149.1572633,684.21,0.16885429620742798,0.014497530646622181,-3.010097026824951
1741112989.3189955,-35.3615961,149.157255,684.26,0.0983918085694313,0.0031771876383572817,-2.9913721084594727
1741112989.419218,-35.3615961,149.157255,684.26,0.0983918085694313,0.0031771876383572817,-2.9913721084594727
1741112989.519466,-35.3615961,149.157255,684.26,0.0983918085694313,0.0031771876383572817,-2.9913721084594727
1741112989.6196234,-35.3616436,149.1572467,684.26,0.04241668060421944,-0.01565651223063469,-2.980473518371582
1741112989.7198002,-35.3616436,149.1572467,684.26,0.04241668060421944,-0.01565651223063469,-2.980473518371582
1741112989.8199465,-35.3616949,149.1572372,684.15,-0.0049184453673660755,-0.03400571644306183,-2.9740686416625977
1741112989.9200602,-35.3616949,149.1572372,684.15,-0.0049184453673660755,-0.03400571644306183,-2.9740686416625977
1741112990.020325,-35.3616949,149.1572372,684.15,-0.0049184453673660755,-0.03400571644306183,-2.9740686416625977
1741112990.1204772,-35.3617423,149.1572283,683.96,-0.03683297708630562,-0.04184042289853096,-2.9725067615509033
1741112990.2206059,-35.3617423,149.1572283,683.96,-0.03683297708630562,-0.04184042289853096,-2.9725067615509033
1741112990.3207428,-35.3617939,149.1572186,683.73,-0.0605873242020607,-0.038143716752529144,-2.9748804569244385
1741112990.4208558,-35.3617939,149.1572186,683.73,-0.0605873242020607,-0.038143716752529144,-2.9748804569244385
1741112990.52098,-35.3617939,149.1572186,683.73,-0.0605873242020607,-0.038143716752529144,-2.9748804569244385
1741112990.6211045,-35.3618418,149.1572098,683.53,-0.07455794513225555,-0.026438714936375618,-2.9799275398254395
1741112990.7212317,-35.3618418,149.1572098,683.53,-0.07455794513225555,-0.026438714936375618,-2.9799275398254395
1741112990.821377,-35.361894,149.1572007,683.39,-0.08274661004543304,-0.01132238656282425,-2.9870400428771973
1741112990.9214976,-35.361894,149.1572007,683.39,-0.08274661004543304,-0.01132238656282425,-2.9870400428771973
1741112991.0217605,-35.361894,149.1572007,683.39,-0.08274661004543304,-0.01132238656282425,-2.9870400428771973
1741112991.1218913,-35.3619425,149.1571926,683.34,-0.08451221138238907,-0.0006244453834369779,-2.9938201904296875
1741112991.22214,-35.3619425,149.1571926,683.34,-0.08451221138238907,-0.0006244453834369779,-2.9938201904296875
1741112991.3222878,-35.3619951,149.1571842,683.35,-0.08108840882778168,0.004300032742321491,-3.000584363937378
1741112991.422425,-35.3619951,149.1571842,683.35,-0.08108840882778168,0.004300032742321491,-3.000584363937378
1741112991.5225573,-35.3619951,149.1571842,683.35,-0.08108840882778168,0.004300032742321491,-3.000584363937378
1741112991.622803,-35.3620437,149.1571768,683.38,-0.07441011816263199,0.0030871867202222347,-3.005936861038208
1741112991.7230701,-35.3620437,149.1571768,683.38,-0.07441011816263199,0.0030871867202222347,-3.005936861038208
1741112991.823196,-35.3620964,149.1571692,683.41,-0.06519000232219696,-0.0016702973516657948,-3.0107421875
1741112991.923321,-35.3620964,149.1571692,683.41,-0.06519000232219696,-0.0016702973516657948,-3.0107421875
1741112992.023563,-35.3620964,149.1571692,683.41,-0.06519000232219696,-0.0016702973516657948,-3.0107421875
1741112992.1237135,-35.3621452,149.1571624,683.4,-0.056402094662189484,-0.005982501897960901,-3.0144221782684326
1741112992.223849,-35.3621452,149.1571624,683.4,-0.056402094662189484,-0.005982501897960901,-3.0144221782684326
1741112992.323977,-35.362198,149.1571551,683.38,-0.04760212078690529,-0.007993344217538834,-3.017625331878662
1741112992.4240816,-35.362198,149.1571551,683.38,-0.04760212078690529,-0.007993344217538834,-3.017625331878662
1741112992.5241852,-35.362198,149.1571551,683.38,-0.04760212078690529,-0.007993344217538834,-3.017625331878662
1741112992.6242967,-35.3622469,149.1571486,683.36,-0.04054168239235878,-0.006888348609209061,-3.0199759006500244
1741112992.7244494,-35.3622469,149.1571486,683.36,-0.04054168239235878,-0.006888348609209061,-3.0199759006500244
1741112992.824647,-35.3623,149.1571417,683.33,-0.03421248868107796,-0.003457064041867852,-3.021836757659912
1741112992.9247575,-35.3623,149.1571417,683.33,-0.03421248868107796,-0.003457064041867852,-3.021836757659912
1741112993.0248985,-35.3623,149.1571417,683.33,-0.03421248868107796,-0.003457064041867852,-3.021836757659912
1741112993.1250463,-35.362349,149.1571353,683.33,-0.029464950785040855,0.0002420764067210257,-3.0229806900024414
1741112993.2251968,-35.362349,149.1571353,683.33,-0.029464950785040855,0.0002420764067210257,-3.0229806900024414
1741112993.3253462,-35.3624022,149.1571285,683.35,-0.025338061153888702,0.003196659730747342,-3.023629903793335
1741112993.425563,-35.3624022,149.1571285,683.35,-0.025338061153888702,0.003196659730747342,-3.023629903793335
1741112993.5257337,-35.3624022,149.1571285,683.35,-0.025338061153888702,0.003196659730747342,-3.023629903793335
1741112993.6258452,-35.3624514,149.1571223,683.38,-0.022404298186302185,0.004112904891371727,-3.0237765312194824
1741112993.726019,-35.3624514,149.1571223,683.38,-0.022404298186302185,0.004112904891371727,-3.0237765312194824
1741112993.8261554,-35.3625047,149.1571155,683.42,-0.0200056042522192,0.0033345408737659454,-3.0235743522644043
1741112993.9263785,-35.3625047,149.1571155,683.42,-0.0200056042522192,0.0033345408737659454,-3.0235743522644043
1741112994.0265265,-35.3625047,149.1571155,683.42,-0.0200056042522192,0.0033345408737659454,-3.0235743522644043
1741112994.1268075,-35.3625538,149.1571092,683.45,-0.01850643940269947,0.0017921575345098972,-3.023191213607788
1741112994.227092,-35.3625538,149.1571092,683.45,-0.01850643940269947,0.0017921575345098972,-3.023191213607788
1741112994.327222,-35.3626072,149.1571024,683.48,-0.05553099885582924,0.00047478164196945727,-3.0207059383392334
1741112994.4274924,-35.3626072,149.1571024,683.48,-0.05553099885582924,0.00047478164196945727,-3.0207059383392334
1741112994.5276365,-35.3626072,149.1571024,683.48,-0.05553099885582924,0.00047478164196945727,-3.0207059383392334
1741112994.6277666,-35.3626564,149.1570964,683.49,-0.18335643410682678,0.0007653454667888582,-3.0169029235839844
1741112994.7278924,-35.3626564,149.1570964,683.49,-0.18335643410682678,0.0007653454667888582,-3.0169029235839844
1741112994.8280191,-35.3627098,149.1570907,683.48,-0.3568324148654938,7.328626816160977e-05,-3.0267200469970703
1741112994.9281273,-35.3627098,149.1570907,683.48,-0.3568324148654938,7.328626816160977e-05,-3.0267200469970703
1741112995.0282948,-35.3627098,149.1570907,683.48,-0.3568324148654938,7.328626816160977e-05,-3.0267200469970703
1741112995.1284757,-35.3627592,149.1570869,683.42,-0.4965187609195709,-0.00534344557672739,-3.0552217960357666
1741112995.2287176,-35.3627592,149.1570869,683.42,-0.4965187609195709,-0.00534344557672739,-3.0552217960357666
1741112995.3289437,-35.362813,149.1570854,683.29,-0.5972097516059875,-0.010875745676457882,-3.106184720993042
1741112995.4290307,-35.362813,149.1570854,683.29,-0.5972097516059875,-0.010875745676457882,-3.106184720993042
1741112995.5291555,-35.362813,149.1570854,683.29,-0.5972097516059875,-0.010875745676457882,-3.106184720993042
1741112995.6293397,-35.362863,149.1570872,683.14,-0.6435628533363342,-0.006157131865620613,3.1114096641540527
1741112995.7294872,-35.362863,149.1570872,683.14,-0.6435628533363342,-0.006157131865620613,3.1114096641540527
1741112995.8296375,-35.3629174,149.1570939,683.02,-0.652638852596283,0.01450661662966013,3.022768259048462
1741112995.929783,-35.3629174,149.1570939,683.02,-0.652638852596283,0.01450661662966013,3.022768259048462
1741112996.0299907,-35.3629174,149.1570939,683.02,-0.652638852596283,0.01450661662966013,3.022768259048462
1741112996.13012,-35.3629675,149.1571054,683.04,-0.629835307598114,0.04573003202676773,2.93276047706604
1741112996.2302592,-35.3629675,149.1571054,683.04,-0.629835307598114,0.04573003202676773,2.93276047706604
1741112996.3303714,-35.363021,149.1571238,683.29,-0.5739179849624634,0.08497805148363113,2.8391711711883545
1741112996.430492,-35.363021,149.1571238,683.29,-0.5739179849624634,0.08497805148363113,2.8391711711883545
1741112996.5306125,-35.363021,149.1571238,683.29,-0.5739179849624634,0.08497805148363113,2.8391711711883545
1741112996.630727,-35.3630689,149.1571457,683.75,-0.49373090267181396,0.11695298552513123,2.766709804534912
1741112996.7308962,-35.3630689,149.1571457,683.75,-0.49373090267181396,0.11695298552513123,2.766709804534912
1741112996.8311083,-35.3631189,149.1571733,684.46,-0.3806127607822418,0.1377224177122116,2.7094221115112305
1741112996.9312723,-35.3631189,149.1571733,684.46,-0.3806127607822418,0.1377224177122116,2.7094221115112305
1741112997.031421,-35.3631189,149.1571733,684.46,-0.3806127607822418,0.1377224177122116,2.7094221115112305
1741112997.1315823,-35.3631636,149.1572009,685.22,-0.2636590600013733,0.13980871438980103,2.675391912460327
1741112997.231721,-35.3631636,149.1572009,685.22,-0.2636590600013733,0.13980871438980103,2.675391912460327
1741112997.3319619,-35.3632108,149.1572318,686.04,-0.141258105635643,0.12590813636779785,2.6539525985717773
1741112997.432076,-35.3632108,149.1572318,686.04,-0.141258105635643,0.12590813636779785,2.6539525985717773
1741112997.5322254,-35.3632108,149.1572318,686.04,-0.141258105635643,0.12590813636779785,2.6539525985717773
1741112997.632353,-35.3632535,149.1572607,686.72,-0.045283447951078415,0.10562121868133545,2.644050121307373
1741112997.732484,-35.3632535,149.1572607,686.72,-0.045283447951078415,0.10562121868133545,2.644050121307373
1741112997.8326213,-35.3632992,149.1572918,687.32,0.03353497385978699,0.08411738276481628,2.6416635513305664
1741112997.9328966,-35.3632992,149.1572918,687.32,0.03353497385978699,0.08411738276481628,2.6416635513305664
1741112998.033137,-35.3632992,149.1572918,687.32,0.03353497385978699,0.08411738276481628,2.6416635513305664
1741112998.1332672,-35.3633412,149.1573201,687.75,0.0831092968583107,0.07065112143754959,2.64607834815979
1741112998.2333922,-35.3633412,149.1573201,687.75,0.0831092968583107,0.07065112143754959,2.64607834815979
1741112998.333509,-35.3633867,149.1573502,688.14,0.11514788866043091,0.06681537628173828,2.6569247245788574
1741112998.4336424,-35.3633867,149.1573502,688.14,0.11514788866043091,0.06681537628173828,2.6569247245788574
1741112998.5337641,-35.3633867,149.1573502,688.14,0.11514788866043091,0.06681537628173828,2.6569247245788574
1741112998.633992,-35.3634289,149.1573773,688.49,0.1286536455154419,0.07229765504598618,2.670931577682495
1741112998.7342308,-35.3634289,149.1573773,688.49,0.1286536455154419,0.07229765504598618,2.670931577682495
1741112998.834383,-35.3634748,149.1574057,688.89,0.12990374863147736,0.08367770165205002,2.6882236003875732
1741112998.9345362,-35.3634748,149.1574057,688.89,0.12990374863147736,0.08367770165205002,2.6882236003875732
1741112999.0346773,-35.3634748,149.1574057,688.89,0.12990374863147736,0.08367770165205002,2.6882236003875732
1741112999.134814,-35.3635174,149.1574311,689.32,0.12224160134792328,0.09423647820949554,2.7043070793151855
1741112999.2349474,-35.3635174,149.1574311,689.32,0.12224160134792328,0.09423647820949554,2.7043070793151855
1741112999.3350458,-35.3635638,149.1574577,689.85,0.10749281942844391,0.10161424428224564,2.7203173637390137
1741112999.4351604,-35.3635638,149.1574577,689.85,0.10749281942844391,0.10161424428224564,2.7203173637390137
1741112999.5353763,-35.3635638,149.1574577,689.85,0.10749281942844391,0.10161424428224564,2.7203173637390137
1741112999.635593,-35.3636068,149.1574815,690.37,0.09018875658512115,0.10330095142126083,2.7330617904663086
1741112999.735853,-35.3636068,149.1574815,690.37,0.09018875658512115,0.10330095142126083,2.7330617904663086
1741112999.8360095,-35.3636536,149.1575066,690.93,0.07010135799646378,0.10072922706604004,2.7445504665374756
1741112999.9361498,-35.3636536,149.1575066,690.93,0.07010135799646378,0.10072922706604004,2.7445504665374756
1741113000.0363991,-35.3636536,149.1575066,690.93,0.07010135799646378,0.10072922706604004,2.7445504665374756
1741113000.1366353,-35.3636968,149.1575293,691.44,0.05235050618648529,0.09697815030813217,2.753169059753418
1741113000.236878,-35.3636968,149.1575293,691.44,0.05235050618648529,0.09697815030813217,2.753169059753418
1741113000.3369894,-35.3637438,149.1575534,691.98,0.03522564843297005,0.0943930447101593,2.760504722595215
1741113000.437116,-35.3637438,149.1575534,691.98,0.03522564843297005,0.0943930447101593,2.760504722595215
1741113000.5372493,-35.3637438,149.1575534,691.98,0.03522564843297005,0.0943930447101593,2.760504722595215
1741113000.6373873,-35.3637874,149.1575754,692.46,0.021777326241135597,0.09497857093811035,2.7655351161956787
1741113000.7375019,-35.3637874,149.1575754,692.46,0.021777326241135597,0.09497857093811035,2.7655351161956787
1741113000.8377457,-35.3638347,149.157599,692.99,0.010288137011229992,0.0988260880112648,2.769488573074341
1741113000.9379432,-35.3638347,149.157599,692.99,0.010288137011229992,0.0988260880112648,2.769488573074341
1741113001.0380857,-35.3638347,149.157599,692.99,0.010288137011229992,0.0988260880112648,2.769488573074341
1741113001.1382382,-35.3638785,149.1576207,693.49,0.002643660409376025,0.10397431999444962,2.7720706462860107
1741113001.2383928,-35.3638785,149.1576207,693.49,0.002643660409376025,0.10397431999444962,2.7720706462860107
1741113001.3386288,-35.3639261,149.157644,694.08,-0.0027140129823237658,0.1094207912683487,2.774044990539551
1741113001.4389699,-35.3639261,149.157644,694.08,-0.0027140129823237658,0.1094207912683487,2.774044990539551
1741113001.539129,-35.3639261,149.157644,694.08,-0.0027140129823237658,0.1094207912683487,2.774044990539551
1741113001.6393585,-35.3639701,149.1576655,694.65,-0.005456193350255489,0.11308444291353226,2.7754034996032715
1741113001.7395792,-35.3639701,149.1576655,694.65,-0.005456193350255489,0.11308444291353226,2.7754034996032715
1741113001.839825,-35.3640179,149.1576888,695.29,-0.006612409837543964,0.1152576133608818,2.7766644954681396
1741113001.9401097,-35.3640179,149.1576888,695.29,-0.006612409837543964,0.1152576133608818,2.7766644954681396
1741113002.0402567,-35.3640179,149.1576888,695.29,-0.006612409837543964,0.1152576133608818,2.7766644954681396
1741113002.1404698,-35.3640621,149.1577102,695.89,-0.006473456975072622,0.11600819230079651,2.7777762413024902
1741113002.2406137,-35.3640621,149.1577102,695.89,-0.006473456975072622,0.11600819230079651,2.7777762413024902
1741113002.3407214,-35.3641101,149.1577333,696.56,-0.0056939213536679745,0.11637295037508011,2.778949499130249
1741113002.4408429,-35.3641101,149.1577333,696.56,-0.0056939213536679745,0.11637295037508011,2.778949499130249
1741113002.5409534,-35.3641101,149.1577333,696.56,-0.0056939213536679745,0.11637295037508011,2.778949499130249
1741113002.6410494,-35.3641545,149.1577547,697.18,-0.004513822495937347,0.1171785369515419,2.7801952362060547
1741113002.7411454,-35.3641545,149.1577547,697.18,-0.004513822495937347,0.1171785369515419,2.7801952362060547
1741113002.8412435,-35.3642028,149.1577777,697.85,-0.0031384711619466543,0.11898297816514969,2.781588077545166
1741113002.9413412,-35.3642028,149.1577777,697.85,-0.0031384711619466543,0.11898297816514969,2.781588077545166
1741113003.0414567,-35.3642028,149.1577777,697.85,-0.0031384711619466543,0.11898297816514969,2.781588077545166
1741113003.1415858,-35.3642474,149.157799,698.49,-0.002333135809749365,0.1213914081454277,2.7830214500427246
1741113003.2417161,-35.3642474,149.157799,698.49,-0.002333135809749365,0.1213914081454277,2.7830214500427246
1741113003.3418515,-35.3642959,149.157822,699.2,-0.0016877793241292238,0.12415653467178345,2.7847652435302734
1741113003.4421363,-35.3642959,149.157822,699.2,-0.0016877793241292238,0.12415653467178345,2.7847652435302734
1741113003.5422873,-35.3642959,149.157822,699.2,-0.0016877793241292238,0.12415653467178345,2.7847652435302734
1741113003.6425366,-35.3643408,149.1578431,699.87,-0.0011769544798880816,0.1263422816991806,2.7864367961883545
1741113003.7427065,-35.3643408,149.1578431,699.87,-0.0011769544798880816,0.1263422816991806,2.7864367961883545
1741113003.8428373,-35.3643895,149.1578659,700.6,-0.0010664018336683512,0.1278180330991745,2.78842830657959
1741113003.9430935,-35.3643895,149.1578659,700.6,-0.0010664018336683512,0.1278180330991745,2.78842830657959
1741113004.0432465,-35.3643895,149.1578659,700.6,-0.0010664018336683512,0.1278180330991745,2.78842830657959
1741113004.1433983,-35.3644345,149.1578869,701.3,-0.0012857300462201238,0.12846755981445312,2.790358066558838
1741113004.2435226,-35.3644345,149.1578869,701.3,-0.0012857300462201238,0.12846755981445312,2.790358066558838
1741113004.3436325,-35.3644834,149.1579096,702.06,-0.0018599805189296603,0.12872643768787384,2.7923452854156494
1741113004.443739,-35.3644834,149.1579096,702.06,-0.0018599805189296603,0.12872643768787384,2.7923452854156494
1741113004.5440257,-35.3644834,149.1579096,702.06,-0.0018599805189296603,0.12872643768787384,2.7923452854156494
1741113004.6441154,-35.3645287,149.1579305,702.76,-0.002890924224629998,0.12887246906757355,2.7940425872802734
1741113004.744209,-35.3645287,149.1579305,702.76,-0.002890924224629998,0.12887246906757355,2.7940425872802734
1741113004.8443236,-35.3645779,149.157953,703.53,-0.004290681332349777,0.12943419814109802,2.7958240509033203
1741113004.9444478,-35.3645779,149.157953,703.53,-0.004290681332349777,0.12943419814109802,2.7958240509033203
1741113005.0445929,-35.3646233,149.1579738,704.25,-0.005678046029061079,0.13037030398845673,2.7973692417144775
1741113005.1447127,-35.3646233,149.1579738,704.25,-0.005678046029061079,0.13037030398845673,2.7973692417144775
1741113005.2448738,-35.3646233,149.1579738,704.25,-0.005678046029061079,0.13037030398845673,2.7973692417144775
1741113005.3450277,-35.3646727,149.1579962,705.03,-0.0072260648012161255,0.13155993819236755,2.7989022731781006
1741113005.4452734,-35.3646727,149.1579962,705.03,-0.0072260648012161255,0.13155993819236755,2.7989022731781006
1741113005.5454092,-35.3647184,149.1580168,705.76,-0.008554409258067608,0.13271310925483704,2.8002161979675293
1741113005.6455274,-35.3647184,149.1580168,705.76,-0.008554409258067608,0.13271310925483704,2.8002161979675293
1741113005.745662,-35.3647184,149.1580168,705.76,-0.008554409258067608,0.13271310925483704,2.8002161979675293
1741113005.8457937,-35.3647679,149.1580392,706.57,-0.009908200241625309,0.13376213610172272,2.8015239238739014
1741113005.9458947,-35.3647679,149.1580392,706.57,-0.009908200241625309,0.13376213610172272,2.8015239238739014
1741113006.0459995,-35.3648137,149.1580598,707.32,-0.011017482727766037,0.13440099358558655,2.8026442527770996
1741113006.1461043,-35.3648137,149.1580598,707.32,-0.011017482727766037,0.13440099358558655,2.8026442527770996
1741113006.2462912,-35.3648137,149.1580598,707.32,-0.011017482727766037,0.13440099358558655,2.8026442527770996
1741113006.3465486,-35.3648634,149.158082,708.13,-0.012004080228507519,0.1349121332168579,2.8037731647491455
1741113006.4467897,-35.3648634,149.158082,708.13,-0.012004080228507519,0.1349121332168579,2.8037731647491455
1741113006.5469167,-35.3649093,149.1581025,708.9,-0.013120015151798725,0.13514864444732666,2.8046655654907227
1741113006.6471403,-35.3649093,149.1581025,708.9,-0.013120015151798725,0.13514864444732666,2.8046655654907227
1741113006.7473123,-35.3649093,149.1581025,708.9,-0.013120015151798725,0.13514864444732666,2.8046655654907227
1741113006.847449,-35.3649591,149.1581247,709.72,-0.01441921666264534,0.13523057103157043,2.8055670261383057
1741113006.9475489,-35.3649591,149.1581247,709.72,-0.01441921666264534,0.13523057103157043,2.8055670261383057
1741113007.0476477,-35.3650051,149.1581451,710.49,-0.015496618114411831,0.13528558611869812,2.8063368797302246
1741113007.1477537,-35.3650051,149.1581451,710.49,-0.015496618114411831,0.13528558611869812,2.8063368797302246
1741113007.2478786,-35.3650051,149.1581451,710.49,-0.015496618114411831,0.13528558611869812,2.8063368797302246
1741113007.3479848,-35.365055,149.1581673,711.31,-0.016568202525377274,0.1353939175605774,2.8070502281188965
1741113007.4480894,-35.365055,149.1581673,711.31,-0.016568202525377274,0.1353939175605774,2.8070502281188965
1741113007.5482292,-35.3651011,149.1581877,712.08,-0.017380952835083008,0.1355660855770111,2.8076207637786865
1741113007.6483347,-35.3651011,149.1581877,712.08,-0.017380952835083008,0.1355660855770111,2.8076207637786865
1741113007.7484646,-35.3651011,149.1581877,712.08,-0.017380952835083008,0.1355660855770111,2.8076207637786865
1741113007.8485887,-35.3651511,149.1582098,712.91,-0.018383320420980453,0.1360161304473877,2.80810284614563
1741113007.948692,-35.3651511,149.1582098,712.91,-0.018383320420980453,0.1360161304473877,2.80810284614563
1741113008.048794,-35.3651973,149.1582301,713.68,-0.019240858033299446,0.13639606535434723,2.8085010051727295
1741113008.1488752,-35.3651973,149.1582301,713.68,-0.019240858033299446,0.13639606535434723,2.8085010051727295
1741113008.2489765,-35.3651973,149.1582301,713.68,-0.019240858033299446,0.13639606535434723,2.8085010051727295
1741113008.3490946,-35.3652473,149.1582522,714.51,-0.019975075498223305,0.13653872907161713,2.8089101314544678
1741113008.4492085,-35.3652473,149.1582522,714.51,-0.019975075498223305,0.13653872907161713,2.8089101314544678
1741113008.5493426,-35.3652935,149.1582726,715.28,-0.020674526691436768,0.1363641768693924,2.8091952800750732
1741113008.6495433,-35.3652935,149.1582726,715.28,-0.020674526691436768,0.1363641768693924,2.8091952800750732
1741113008.749783,-35.3652935,149.1582726,715.28,-0.020674526691436768,0.1363641768693924,2.8091952800750732
1741113008.8500147,-35.3653435,149.1582946,716.11,-0.021326031535863876,0.13607102632522583,2.8094613552093506
1741113008.9501243,-35.3653435,149.1582946,716.11,-0.021326031535863876,0.13607102632522583,2.8094613552093506
1741113009.0502129,-35.3653898,149.158315,716.88,-0.02189609594643116,0.13605369627475739,2.8096346855163574
1741113009.1502967,-35.3653898,149.158315,716.88,-0.02189609594643116,0.13605369627475739,2.8096346855163574
1741113009.2503848,-35.3653898,149.158315,716.88,-0.02189609594643116,0.13605369627475739,2.8096346855163574
1741113009.3504982,-35.3654399,149.1583371,717.71,-0.022493673488497734,0.13624493777751923,2.8097617626190186
1741113009.4506378,-35.3654399,149.1583371,717.71,-0.022493673488497734,0.13624493777751923,2.8097617626190186
1741113009.5507014,-35.3654862,149.1583574,718.48,-0.022996248677372932,0.1366235315799713,2.809824228286743
1741113009.6508193,-35.3654862,149.1583574,718.48,-0.022996248677372932,0.1366235315799713,2.809824228286743
1741113009.750964,-35.3654862,149.1583574,718.48,-0.022996248677372932,0.1366235315799713,2.809824228286743
1741113009.8510754,-35.3655363,149.1583795,719.32,-0.023508774116635323,0.1371912807226181,2.809828996658325
1741113009.9513168,-35.3655363,149.1583795,719.32,-0.023508774116635323,0.1371912807226181,2.809828996658325
1741113010.051441,-35.3655826,149.1583999,720.09,-0.02394155040383339,0.13765639066696167,2.80979323387146
1741113010.1515439,-35.3655826,149.1583999,720.09,-0.02394155040383339,0.13765639066696167,2.80979323387146
1741113010.2516835,-35.3655826,149.1583999,720.09,-0.02394155040383339,0.13765639066696167,2.80979323387146
1741113010.3518062,-35.3655826,149.1583999,720.09,-0.024372974410653114,0.13776229321956635,2.8097407817840576
1741113010.4518876,-35.3655826,149.1583999,720.09,-0.024372974410653114,0.13776229321956635,2.8097407817840576
1741113010.5520175,-35.3655826,149.1583999,720.09,-0.026657119393348694,0.1375984400510788,2.8097546100616455
1741113010.6522398,-35.3655826,149.1583999,720.09,-0.026657119393348694,0.1375984400510788,2.8097546100616455
1741113010.7523794,-35.3657098,149.1584561,722.22,-0.026657119393348694,0.1375984400510788,2.8097546100616455
1741113010.8524892,-35.3657098,149.1584561,722.22,-0.10866700857877731,0.13988099992275238,2.813084602355957
1741113010.952728,-35.3657098,149.1584561,722.22,-0.10866700857877731,0.13988099992275238,2.813084602355957
1741113011.0528505,-35.3657098,149.1584561,722.22,-0.2582019865512848,0.14562156796455383,2.8114371299743652
1741113011.1530104,-35.3657098,149.1584561,722.22,-0.2582019865512848,0.14562156796455383,2.8114371299743652
1741113011.25315,-35.3658056,149.1585001,723.83,-0.2582019865512848,0.14562156796455383,2.8114371299743652
1741113011.353284,-35.3658056,149.1585001,723.83,-0.4453442692756653,0.1488000452518463,2.7903051376342773
1741113011.453398,-35.3658056,149.1585001,723.83,-0.4453442692756653,0.1488000452518463,2.7903051376342773
1741113011.5535276,-35.3658056,149.1585001,723.83,-0.5984148979187012,0.14042380452156067,2.7538001537323
1741113011.6536474,-35.3658056,149.1585001,723.83,-0.5984148979187012,0.14042380452156067,2.7538001537323
1741113011.7537768,-35.3658994,149.1585508,725.33,-0.5984148979187012,0.14042380452156067,2.7538001537323
1741113011.8538756,-35.3658994,149.1585508,725.33,-0.709131121635437,0.12082145363092422,2.7010233402252197
1741113011.9539921,-35.3658994,149.1585508,725.33,-0.709131121635437,0.12082145363092422,2.7010233402252197
1741113012.054113,-35.3658994,149.1585508,725.33,-0.7601399421691895,0.10098475962877274,2.641176462173462
1741113012.1542442,-35.3658994,149.1585508,725.33,-0.7601399421691895,0.10098475962877274,2.641176462173462
1741113012.2543535,-35.3659898,149.1586138,726.4,-0.7601399421691895,0.10098475962877274,2.641176462173462
1741113012.354478,-35.3659898,149.1586138,726.4,-0.7723963856697083,0.08601409941911697,2.5638813972473145
1741113012.4545915,-35.3659898,149.1586138,726.4,-0.7723963856697083,0.08601409941911697,2.5638813972473145
1741113012.5547006,-35.3659898,149.1586138,726.4,-0.7549510598182678,0.0816841572523117,2.48390531539917
1741113012.6549501,-35.3659898,149.1586138,726.4,-0.7549510598182678,0.0816841572523117,2.48390531539917
1741113012.7550964,-35.3660743,149.1586936,727.16,-0.7549510598182678,0.0816841572523117,2.48390531539917
1741113012.8553324,-35.3660743,149.1586936,727.16,-0.712232768535614,0.0852886289358139,2.3954555988311768
1741113012.9555707,-35.3660743,149.1586936,727.16,-0.712232768535614,0.0852886289358139,2.3954555988311768
1741113013.05569,-35.3660743,149.1586936,727.16,-0.653413712978363,0.09062913060188293,2.32049298286438
1741113013.155829,-35.3660743,149.1586936,727.16,-0.653413712978363,0.09062913060188293,2.32049298286438
1741113013.2560816,-35.3661489,149.1587907,728.03,-0.653413712978363,0.09062913060188293,2.32049298286438
1741113013.3561862,-35.3661489,149.1587907,728.03,-0.5704023241996765,0.09128392487764359,2.253525495529175
1741113013.4563034,-35.3661489,149.1587907,728.03,-0.5704023241996765,0.09128392487764359,2.253525495529175
1741113013.5564268,-35.3661489,149.1587907,728.03,-0.48025795817375183,0.0823458880186081,2.206970691680908
1741113013.6565354,-35.3661489,149.1587907,728.03,-0.48025795817375183,0.0823458880186081,2.206970691680908
1741113013.7568367,-35.3662133,149.158899,729.01,-0.48025795817375183,0.0823458880186081,2.206970691680908
1741113013.857095,-35.3662133,149.158899,729.01,-0.3771001994609833,0.061793576925992966,2.170862913131714
1741113013.9573407,-35.3662133,149.158899,729.01,-0.3771001994609833,0.061793576925992966,2.170862913131714
1741113014.0574918,-35.3662133,149.158899,729.01,-0.2863864302635193,0.036749519407749176,2.1470539569854736
1741113014.1576161,-35.3662133,149.158899,729.01,-0.2863864302635193,0.036749519407749176,2.1470539569854736
1741113014.2577512,-35.3662715,149.1590115,729.66,-0.2863864302635193,0.036749519407749176,2.1470539569854736
1741113014.3579001,-35.3662715,149.1590115,729.66,-0.20085914433002472,0.008439743891358376,2.128561019897461
1741113014.4580064,-35.3662715,149.1590115,729.66,-0.20085914433002472,0.008439743891358376,2.128561019897461
1741113014.5581355,-35.3662715,149.1590115,729.66,-0.13678359985351562,-0.01456042006611824,2.116577386856079
1741113014.6582506,-35.3662715,149.1590115,729.66,-0.13678359985351562,-0.01456042006611824,2.116577386856079
1741113014.758384,-35.3663267,149.1591253,729.72,-0.13678359985351562,-0.01456042006611824,2.116577386856079
1741113014.8585508,-35.3663267,149.1591253,729.72,-0.0831146389245987,-0.03365486487746239,2.108165740966797
1741113014.9587836,-35.3663267,149.1591253,729.72,-0.0831146389245987,-0.03365486487746239,2.108165740966797
1741113015.0589015,-35.3663267,149.1591253,729.72,-0.04601297155022621,-0.045550279319286346,2.103947401046753
1741113015.1591454,-35.3663267,149.1591253,729.72,-0.04601297155022621,-0.045550279319286346,2.103947401046753
1741113015.2592921,-35.3663805,149.1592394,729.3,-0.04601297155022621,-0.045550279319286346,2.103947401046753
1741113015.3595307,-35.3663805,149.1592394,729.3,-0.016561802476644516,-0.05301240459084511,2.1024703979492188
1741113015.4597716,-35.3663805,149.1592394,729.3,-0.016561802476644516,-0.05301240459084511,2.1024703979492188
1741113015.5599272,-35.3663805,149.1592394,729.3,0.003046733792871237,-0.05686270818114281,2.103459119796753
1741113015.6601722,-35.3663805,149.1592394,729.3,0.003046733792871237,-0.05686270818114281,2.103459119796753
1741113015.7603393,-35.3664342,149.1593534,728.68,0.003046733792871237,-0.05686270818114281,2.103459119796753
1741113015.8604555,-35.3664342,149.1593534,728.68,0.018181055784225464,-0.06030691787600517,2.1064529418945312
1741113015.960633,-35.3664342,149.1593534,728.68,0.018181055784225464,-0.06030691787600517,2.1064529418945312
1741113016.0607848,-35.3664342,149.1593534,728.68,0.0278524961322546,-0.06464824080467224,2.110445499420166
1741113016.160891,-35.3664342,149.1593534,728.68,0.0278524961322546,-0.06464824080467224,2.110445499420166
1741113016.2610006,-35.3664884,149.1594668,727.96,0.0278524961322546,-0.06464824080467224,2.110445499420166
1741113016.3612096,-35.3664884,149.1594668,727.96,0.03465403988957405,-0.07119099050760269,2.115579843521118
1741113016.4613497,-35.3664884,149.1594668,727.96,0.03465403988957405,-0.07119099050760269,2.115579843521118
1741113016.5614853,-35.3664884,149.1594668,727.96,0.03808388113975525,-0.0783449113368988,2.1208345890045166
1741113016.6617262,-35.3664884,149.1594668,727.96,0.03808388113975525,-0.0783449113368988,2.1208345890045166
1741113016.7618532,-35.3665433,149.1595791,727.11,0.03808388113975525,-0.0783449113368988,2.1208345890045166
1741113016.8619869,-35.3665433,149.1595791,727.11,0.03951509669423103,-0.08618475496768951,2.1268374919891357
1741113016.9621055,-35.3665433,149.1595791,727.11,0.03951509669423103,-0.08618475496768951,2.1268374919891357
1741113017.0622826,-35.3665433,149.1595791,727.11,0.03926495462656021,-0.09263960272073746,2.1324315071105957
1741113017.162532,-35.3665433,149.1595791,727.11,0.03926495462656021,-0.09263960272073746,2.1324315071105957
1741113017.2627723,-35.366599,149.1596902,726.08,0.03926495462656021,-0.09263960272073746,2.1324315071105957
1741113017.363008,-35.366599,149.1596902,726.08,0.03770889714360237,-0.09814188629388809,2.1384878158569336
1741113017.4632595,-35.366599,149.1596902,726.08,0.03770889714360237,-0.09814188629388809,2.1384878158569336
1741113017.563406,-35.366599,149.1596902,726.08,0.035456154495477676,-0.10186143964529037,2.144012451171875
1741113017.6636474,-35.366599,149.1596902,726.08,0.035456154495477676,-0.10186143964529037,2.144012451171875
1741113017.763909,-35.3666554,149.1598,724.93,0.035456154495477676,-0.10186143964529037,2.144012451171875
1741113017.8641493,-35.3666554,149.1598,724.93,0.0326966755092144,-0.10469004511833191,2.149857521057129
1741113017.9643865,-35.3666554,149.1598,724.93,0.0326966755092144,-0.10469004511833191,2.149857521057129
1741113018.064627,-35.3666554,149.1598,724.93,0.029757579788565636,-0.10672949254512787,2.154996633529663
1741113018.1649141,-35.3666554,149.1598,724.93,0.029757579788565636,-0.10672949254512787,2.154996633529663
1741113018.265039,-35.3667127,149.1599088,723.7,0.029757579788565636,-0.10672949254512787,2.154996633529663
1741113018.3651643,-35.3667127,149.1599088,723.7,0.026053283363580704,-0.10909289866685867,2.1602625846862793
1741113018.4654047,-35.3667127,149.1599088,723.7,0.026053283363580704,-0.10909289866685867,2.1602625846862793
