Time,Lat,Lon,Alt,Roll,Pitch,Yaw
1741112964.579887,-35.3598886,149.1621231,108.85000000000002,0.4556152820587158,-0.0156757216900587,-2.7119507789611816
1741112964.679984,-35.3598886,149.1621231,108.85000000000002,0.4556152820587158,-0.0156757216900587,-2.7119507789611816
1741112964.780119,-35.3598886,149.1621231,108.85000000000002,0.4556152820587158,-0.0156757216900587,-2.7119507789611816
1741112964.8802626,-35.3599355,149.1620941,108.67999999999995,0.6293564438819885,-0.024943159893155,-2.665937900543213
1741112964.9804933,-35.3599355,149.1620941,108.67999999999995,0.6293564438819885,-0.024943159893155,-2.665937900543213
1741112965.0807474,-35.3599778,149.1620643,108.44000000000005,0.7542131543159485,-0.0344413816928863,-2.6016807556152344
1741112965.1809862,-35.3599778,149.1620643,108.44000000000005,0.7542131543159485,-0.0344413816928863,-2.6016807556152344
1741112965.2811184,-35.3599778,149.1620643,108.44000000000005,0.7542131543159485,-0.0344413816928863,-2.6016807556152344
1741112965.3813632,-35.3600219,149.1620275,108.10000000000002,0.8337125182151794,-0.0374996699392795,-2.5036380290985107
1741112965.4814923,-35.3600219,149.1620275,108.10000000000002,0.8337125182151794,-0.0374996699392795,-2.5036380290985107
1741112965.581725,-35.3600602,149.1619882,107.76999999999998,0.8633133769035339,-0.0266650021076202,-2.3872182369232178
1741112965.681967,-35.3600602,149.1619882,107.76999999999998,0.8633133769035339,-0.0266650021076202,-2.3872182369232178
1741112965.782102,-35.3600602,149.1619882,107.76999999999998,0.8633133769035339,-0.0266650021076202,-2.3872182369232178
1741112965.8822503,-35.3600978,149.1619387,107.50999999999999,0.8632833361625671,0.0012276817578822,-2.2408711910247803
1741112965.98239,-35.3600978,149.1619387,107.50999999999999,0.8632833361625671,0.0012276817578822,-2.2408711910247803
1741112966.082507,-35.3601273,149.1618868,107.44000000000005,0.8427629470825195,0.0364135392010211,-2.099619150161743
1741112966.1827445,-35.3601273,149.1618868,107.44000000000005,0.8427629470825195,0.0364135392010211,-2.099619150161743
1741112966.2828774,-35.3601273,149.1618868,107.44000000000005,0.8427629470825195,0.0364135392010211,-2.099619150161743
1741112966.3831167,-35.3601525,149.1618251,107.63,0.7989352345466614,0.0748869776725769,-1.9557175636291504
1741112966.4833543,-35.3601525,149.1618251,107.63,0.7989352345466614,0.0748869776725769,-1.9557175636291504
1741112966.583593,-35.3601696,149.1617649,108.03999999999996,0.7335454225540161,0.1019815653562545,-1.8432104587554927
1741112966.6838925,-35.3601696,149.1617649,108.03999999999996,0.7335454225540161,0.1019815653562545,-1.8432104587554927
1741112966.7841303,-35.3601696,149.1617649,108.03999999999996,0.7335454225540161,0.1019815653562545,-1.8432104587554927
1741112966.8842793,-35.3601821,149.161698,108.66999999999996,0.6325870752334595,0.1148585230112075,-1.749971866607666
1741112966.9844518,-35.3601821,149.161698,108.66999999999996,0.6325870752334595,0.1148585230112075,-1.749971866607666
1741112967.084595,-35.3601896,149.1616361,109.32000000000005,0.5173173546791077,0.1083382740616798,-1.689235806465149
1741112967.184727,-35.3601896,149.1616361,109.32000000000005,0.5173173546791077,0.1083382740616798,-1.689235806465149
1741112967.284896,-35.3601896,149.1616361,109.32000000000005,0.5173173546791077,0.1083382740616798,-1.689235806465149
1741112967.385132,-35.3601949,149.1615696,110.0,0.3845216333866119,0.0826627388596534,-1.6443161964416504
1741112967.4853835,-35.3601949,149.1615696,110.0,0.3845216333866119,0.0826627388596534,-1.6443161964416504
1741112967.5855262,-35.360198,149.1615089,110.48000000000002,0.2701683342456817,0.0481363795697689,-1.6152435541152954
1741112967.6856575,-35.360198,149.1615089,110.48000000000002,0.2701683342456817,0.0481363795697689,-1.6152435541152954
1741112967.7858312,-35.360198,149.1615089,110.48000000000002,0.2701683342456817,0.0481363795697689,-1.6152435541152954
1741112967.885942,-35.3602002,149.1614443,110.78999999999996,0.1663026511669159,0.0076226275414228,-1.592484712600708
1741112967.9861689,-35.3602002,149.1614443,110.78999999999996,0.1663026511669159,0.0076226275414228,-1.592484712600708
1741112968.08631,-35.3602014,149.1613854,110.86000000000001,0.0914456993341445,-0.0252984799444675,-1.577489137649536
1741112968.186485,-35.3602014,149.1613854,110.86000000000001,0.0914456993341445,-0.0252984799444675,-1.577489137649536
1741112968.2866316,-35.3602014,149.1613854,110.86000000000001,0.0914456993341445,-0.0252984799444675,-1.577489137649536
1741112968.3867629,-35.3602023,149.1613222,110.74000000000001,0.0304973945021629,-0.0500095561146736,-1.5668213367462158
1741112968.4868834,-35.3602023,149.1613222,110.74000000000001,0.0304973945021629,-0.0500095561146736,-1.5668213367462158
1741112968.5869896,-35.3602027,149.1612643,110.50999999999999,-0.0112772248685359,-0.0591695643961429,-1.5617889165878296
1741112968.6871128,-35.3602027,149.1612643,110.50999999999999,-0.0112772248685359,-0.0591695643961429,-1.5617889165878296
1741112968.7872298,-35.3602027,149.1612643,110.50999999999999,-0.0112772248685359,-0.0591695643961429,-1.5617889165878296
1741112968.8873453,-35.3602031,149.1612016,110.21000000000004,-0.044894453138113,-0.0553767085075378,-1.5611207485198977
1741112968.9874723,-35.3602031,149.1612016,110.21000000000004,-0.044894453138113,-0.0553767085075378,-1.5611207485198977
1741112969.087565,-35.3602035,149.1611437,109.95000000000005,-0.0679080635309219,-0.0439187884330749,-1.564137578010559
1741112969.1876795,-35.3602035,149.1611437,109.95000000000005,-0.0679080635309219,-0.0439187884330749,-1.564137578010559
1741112969.2877996,-35.3602035,149.1611437,109.95000000000005,-0.0679080635309219,-0.0439187884330749,-1.564137578010559
1741112969.3879,-35.3602041,149.1610807,109.74000000000001,-0.0859133526682853,-0.0298500228673219,-1.5701168775558472
1741112969.4880297,-35.3602041,149.1610807,109.74000000000001,-0.0859133526682853,-0.0298500228673219,-1.5701168775558472
1741112969.5881488,-35.360205,149.1610224,109.61000000000001,-0.0971279144287109,-0.0206165499985218,-1.5770025253295898
1741112969.6882768,-35.360205,149.1610224,109.61000000000001,-0.0971279144287109,-0.0206165499985218,-1.5770025253295898
1741112969.7884195,-35.360205,149.1610224,109.61000000000001,-0.0971279144287109,-0.0206165499985218,-1.5770025253295898
1741112969.888664,-35.3602064,149.1609591,109.52999999999997,-0.1040057018399238,-0.0171253159642219,-1.584982991218567
1741112969.9889042,-35.3602064,149.1609591,109.52999999999997,-0.1040057018399238,-0.0171253159642219,-1.584982991218567
1741112970.0890272,-35.3602081,149.1609006,109.47000000000003,-0.1058244779706001,-0.0189889632165431,-1.59237802028656
1741112970.1891477,-35.3602081,149.1609006,109.47000000000003,-0.1058244779706001,-0.0189889632165431,-1.59237802028656
1741112970.289262,-35.3602081,149.1609006,109.47000000000003,-0.1058244779706001,-0.0189889632165431,-1.59237802028656
1741112970.3894477,-35.3602102,149.1608372,109.38,-0.1041086986660957,-0.0235288683325052,-1.600322961807251
1741112970.4895957,-35.3602102,149.1608372,109.38,-0.1041086986660957,-0.0235288683325052,-1.600322961807251
1741112970.589745,-35.3602126,149.1607786,109.27999999999997,-0.1005180552601814,-0.0268123596906662,-1.6077269315719604
1741112970.6900012,-35.3602126,149.1607786,109.27999999999997,-0.1005180552601814,-0.0268123596906662,-1.6077269315719604
1741112970.7901492,-35.3602126,149.1607786,109.27999999999997,-0.1005180552601814,-0.0268123596906662,-1.6077269315719604
1741112970.890275,-35.3602155,149.160715,109.15999999999997,-0.0958468839526176,-0.0269978865981102,-1.6158156394958496
1741112970.9903817,-35.3602155,149.160715,109.15999999999997,-0.0958468839526176,-0.0269978865981102,-1.6158156394958496
1741112971.0905411,-35.3602185,149.1606562,109.04999999999995,-0.0912744328379631,-0.0238824728876352,-1.62321138381958
1741112971.1906571,-35.3602185,149.1606562,109.04999999999995,-0.0912744328379631,-0.0238824728876352,-1.62321138381958
1741112971.2907972,-35.3602185,149.1606562,109.04999999999995,-0.0912744328379631,-0.0238824728876352,-1.62321138381958
1741112971.3910675,-35.3602222,149.1605922,108.96000000000004,-0.086206741631031,-0.018659695982933,-1.6308515071868896
1741112971.4912112,-35.3602222,149.1605922,108.96000000000004,-0.086206741631031,-0.018659695982933,-1.6308515071868896
1741112971.591331,-35.360226,149.1605331,108.89999999999998,-0.0814457461237907,-0.0139230778440833,-1.637250542640686
1741112971.6914446,-35.360226,149.1605331,108.89999999999998,-0.0814457461237907,-0.0139230778440833,-1.637250542640686
1741112971.7915325,-35.360226,149.1605331,108.89999999999998,-0.0814457461237907,-0.0139230778440833,-1.637250542640686
1741112971.8917468,-35.3602304,149.1604689,108.85000000000002,-0.076217271387577,-0.0104828905314207,-1.6435470581054688
1741112971.9921277,-35.3602304,149.1604689,108.85000000000002,-0.076217271387577,-0.0104828905314207,-1.6435470581054688
1741112972.0922751,-35.3602347,149.1604095,108.83000000000004,-0.071825161576271,-0.009458590298891,-1.6488054990768433
1741112972.1925185,-35.3602347,149.1604095,108.83000000000004,-0.071825161576271,-0.009458590298891,-1.6488054990768433
1741112972.2927709,-35.3602347,149.1604095,108.83000000000004,-0.071825161576271,-0.009458590298891,-1.6488054990768433
1741112972.3929036,-35.3602347,149.1604095,108.83000000000004,-0.0672985911369323,-0.009939300827682,-1.65387225151062
1741112972.493139,-35.3602347,149.1604095,108.83000000000004,-0.0672985911369323,-0.009939300827682,-1.65387225151062
1741112972.5932825,-35.3602347,149.1604095,108.83000000000004,-0.0632933527231216,-0.0106621952727437,-1.658074975013733
1741112972.693412,-35.3602466,149.1602609,108.78999999999996,-0.0632933527231216,-0.0106621952727437,-1.658074975013733
1741112972.7935708,-35.3602466,149.1602609,108.78999999999996,-0.0632933527231216,-0.0106621952727437,-1.658074975013733
1741112972.893813,-35.3602466,149.1602609,108.78999999999996,-0.0592745617032051,-0.0107792010530829,-1.6622189283370972
1741112972.9939995,-35.3602466,149.1602609,108.78999999999996,-0.0592745617032051,-0.0107792010530829,-1.6622189283370972
1741112973.0941503,-35.3602466,149.1602609,108.78999999999996,-0.0560203269124031,-0.009980690665543,-1.6658985614776611
1741112973.1943152,-35.3602574,149.1601368,108.75,-0.0560203269124031,-0.009980690665543,-1.6658985614776611
1741112973.2944784,-35.3602574,149.1601368,108.75,-0.0560203269124031,-0.009980690665543,-1.6658985614776611
1741112973.3947222,-35.3602574,149.1601368,108.75,-0.0530071891844272,-0.0082665476948022,-1.6695080995559692
1741112973.4949627,-35.3602574,149.1601368,108.75,-0.0530071891844272,-0.0082665476948022,-1.6695080995559692
1741112973.595106,-35.3602574,149.1601368,108.75,-0.0506199859082698,-0.006390428636223,-1.6724251508712769
1741112973.69525,-35.3602689,149.1600123,108.73000000000002,-0.0506199859082698,-0.006390428636223,-1.6724251508712769
1741112973.7954965,-35.3602689,149.1600123,108.73000000000002,-0.0506199859082698,-0.006390428636223,-1.6724251508712769
1741112973.8956351,-35.3602689,149.1600123,108.73000000000002,-0.0481216944754123,-0.0048933560028672,-1.6753339767456057
1741112973.9957745,-35.3602689,149.1600123,108.73000000000002,-0.0481216944754123,-0.0048933560028672,-1.6753339767456057
1741112974.0958886,-35.3602689,149.1600123,108.73000000000002,-0.0461470931768417,-0.0042871297337114,-1.677858591079712
1741112974.1960115,-35.360281,149.1598877,108.74000000000001,-0.0461470931768417,-0.0042871297337114,-1.677858591079712
1741112974.296131,-35.360281,149.1598877,108.74000000000001,-0.0461470931768417,-0.0042871297337114,-1.677858591079712
1741112974.396253,-35.360281,149.1598877,108.74000000000001,-0.044397909194231,-0.0041863652877509,-1.6803700923919678
1741112974.4963715,-35.360281,149.1598877,108.74000000000001,-0.044397909194231,-0.0041863652877509,-1.6803700923919678
1741112974.596623,-35.360281,149.1598877,108.74000000000001,-0.0428295470774173,-0.0043201078660786,-1.6824798583984375
1741112974.6967666,-35.3602937,149.159763,108.75,-0.0428295470774173,-0.0043201078660786,-1.6824798583984375
1741112974.7968771,-35.3602937,149.159763,108.75,-0.0428295470774173,-0.0043201078660786,-1.6824798583984375
1741112974.8969944,-35.3602937,149.159763,108.75,-0.041042074561119,-0.0041743088513612,-1.684605836868286
1741112974.9971976,-35.3602937,149.159763,108.75,-0.041042074561119,-0.0041743088513612,-1.684605836868286
1741112975.0974429,-35.3603041,149.1596631,108.75,-0.0395013019442558,-0.0035499690566211,-1.686389684677124
1741112975.1976285,-35.3603041,149.1596631,108.75,-0.0395013019442558,-0.0035499690566211,-1.686389684677124
1741112975.297876,-35.3603041,149.1596631,108.75,-0.0395013019442558,-0.0035499690566211,-1.686389684677124
1741112975.3979518,-35.360311,149.1595982,108.75999999999999,-0.0381920933723449,-0.0027031661011278,-1.6880576610565186
1741112975.498076,-35.360311,149.1595982,108.75999999999999,-0.0381920933723449,-0.0027031661011278,-1.6880576610565186
1741112975.5982046,-35.3603174,149.1595382,108.76999999999998,-0.0370803996920585,-0.0021284797694534,-1.6895040273666382
1741112975.698325,-35.3603174,149.1595382,108.76999999999998,-0.0370803996920585,-0.0021284797694534,-1.6895040273666382
1741112975.7984412,-35.3603174,149.1595382,108.76999999999998,-0.0370803996920585,-0.0021284797694534,-1.6895040273666382
1741112975.8985646,-35.3603245,149.1594732,108.78999999999996,-0.0359012149274349,-0.0018584580393508,-1.6909799575805664
1741112975.9987197,-35.3603245,149.1594732,108.78999999999996,-0.0359012149274349,-0.0018584580393508,-1.6909799575805664
1741112976.098829,-35.3603311,149.1594133,108.80999999999995,-0.0348114594817161,-0.0017521268455311,-1.692215085029602
1741112976.1989672,-35.3603311,149.1594133,108.80999999999995,-0.0348114594817161,-0.0017521268455311,-1.692215085029602
1741112976.2990878,-35.3603311,149.1594133,108.80999999999995,-0.0348114594817161,-0.0017521268455311,-1.692215085029602
1741112976.3992243,-35.3603383,149.1593483,108.83000000000004,-0.0338739901781082,-0.0018201468046754,-1.6934894323349
1741112976.499369,-35.3603383,149.1593483,108.83000000000004,-0.0338739901781082,-0.0018201468046754,-1.6934894323349
1741112976.5995104,-35.3603449,149.1592883,108.85000000000002,-0.0333895906805992,-0.0018233961891382,-1.6946138143539429
1741112976.6996543,-35.3603449,149.1592883,108.85000000000002,-0.0333895906805992,-0.0018233961891382,-1.6946138143539429
1741112976.7997627,-35.3603449,149.1592883,108.85000000000002,-0.0333895906805992,-0.0018233961891382,-1.6946138143539429
1741112976.899896,-35.3603523,149.1592233,108.87,-0.032926008105278,-0.0020564238075166,-1.6957217454910278
1741112977.0000093,-35.3603523,149.1592233,108.87,-0.032926008105278,-0.0020564238075166,-1.6957217454910278
1741112977.1001172,-35.3603591,149.1591633,108.88999999999999,-0.0322981551289558,-0.0022877261508256,-1.696727991104126
1741112977.2002409,-35.3603591,149.1591633,108.88999999999999,-0.0322981551289558,-0.0022877261508256,-1.696727991104126
1741112977.300389,-35.3603591,149.1591633,108.88999999999999,-0.0322981551289558,-0.0022877261508256,-1.696727991104126
1741112977.400626,-35.3603665,149.1590984,108.90999999999997,-0.0315176248550415,-0.0022565477993339,-1.6977459192276
1741112977.5009046,-35.3603665,149.1590984,108.90999999999997,-0.0315176248550415,-0.0022565477993339,-1.6977459192276
1741112977.6011496,-35.3603734,149.1590384,108.92999999999995,-0.0308090317994356,-0.0022035224828869,-1.6985987424850464
1741112977.7013924,-35.3603734,149.1590384,108.92999999999995,-0.0308090317994356,-0.0022035224828869,-1.6985987424850464
1741112977.8016472,-35.3603734,149.1590384,108.92999999999995,-0.0308090317994356,-0.0022035224828869,-1.6985987424850464
1741112977.901778,-35.3603809,149.1589734,108.95000000000005,-0.0301195066422224,-0.002246499992907,-1.6994301080703735
1741112978.001887,-35.3603809,149.1589734,108.95000000000005,-0.0301195066422224,-0.002246499992907,-1.6994301080703735
1741112978.101998,-35.3603879,149.1589135,108.96000000000004,-0.0294893886893987,-0.0020736055448651,-1.7001371383666992
1741112978.2021115,-35.3603879,149.1589135,108.96000000000004,-0.0294893886893987,-0.0020736055448651,-1.7001371383666992
1741112978.3022394,-35.3603879,149.1589135,108.96000000000004,-0.0294893886893987,-0.0020736055448651,-1.7001371383666992
1741112978.4023564,-35.3603955,149.1588485,108.98000000000002,-0.0287793092429637,-0.0019758108537644,-1.7008451223373413
1741112978.5024898,-35.3603955,149.1588485,108.98000000000002,-0.0287793092429637,-0.0019758108537644,-1.7008451223373413
1741112978.6026175,-35.3604026,149.1587886,109.0,-0.0280796587467193,-0.0021204403601586,-1.701412796974182
1741112978.702735,-35.3604026,149.1587886,109.0,-0.0280796587467193,-0.0021204403601586,-1.701412796974182
1741112978.8028507,-35.3604026,149.1587886,109.0,-0.0280796587467193,-0.0021204403601586,-1.701412796974182
1741112978.9029636,-35.3604102,149.1587237,109.01999999999998,-0.0272703319787979,-0.0023790046107023,-1.7019528150558472
1741112979.0032153,-35.3604102,149.1587237,109.01999999999998,-0.0272703319787979,-0.0023790046107023,-1.7019528150558472
1741112979.1033273,-35.3604173,149.1586638,109.03999999999996,-0.0265111997723579,-0.002621459076181,-1.7023797035217283
1741112979.2035477,-35.3604173,149.1586638,109.03999999999996,-0.0265111997723579,-0.002621459076181,-1.7023797035217283
1741112979.3036928,-35.3604173,149.1586638,109.03999999999996,-0.0265111997723579,-0.002621459076181,-1.7023797035217283
1741112979.403821,-35.360425,149.1585989,109.04999999999995,-0.0258849821984767,-0.0026419253554195,-1.7027060985565186
1741112979.5039592,-35.360425,149.1585989,109.04999999999995,-0.0258849821984767,-0.0026419253554195,-1.7027060985565186
1741112979.6041844,-35.3604322,149.158539,109.07000000000005,-0.0256160460412502,-0.002559456275776,-1.7028597593307495
1741112979.7043374,-35.3604322,149.158539,109.07000000000005,-0.0256160460412502,-0.002559456275776,-1.7028597593307495
1741112979.8046,-35.3604322,149.158539,109.07000000000005,-0.0256160460412502,-0.002559456275776,-1.7028597593307495
1741112979.9047515,-35.3604399,149.1584742,109.08000000000004,-0.0253826398402452,-0.0025370195508003,-1.7030563354492188
1741112980.004899,-35.3604399,149.1584742,109.08000000000004,-0.0253826398402452,-0.0025370195508003,-1.7030563354492188
1741112980.1050968,-35.360447,149.1584144,109.10000000000002,-0.0252502746880054,-0.0028043778147548,-1.7032434940338137
1741112980.2052448,-35.360447,149.1584144,109.10000000000002,-0.0252502746880054,-0.0028043778147548,-1.7032434940338137
1741112980.3053586,-35.360447,149.1584144,109.10000000000002,-0.0252502746880054,-0.0028043778147548,-1.7032434940338137
1741112980.4055643,-35.3604548,149.1583496,109.11000000000001,-0.0251713544130325,-0.003455521306023,-1.7033926248550415
1741112980.505808,-35.3604548,149.1583496,109.11000000000001,-0.0251713544130325,-0.003455521306023,-1.7033926248550415
1741112980.606078,-35.3604619,149.1582897,109.13,-0.0250776167958974,-0.0039031610358506,-1.7035181522369385
1741112980.706226,-35.3604619,149.1582897,109.13,-0.0250776167958974,-0.0039031610358506,-1.7035181522369385
1741112980.8063765,-35.3604619,149.1582897,109.13,-0.0250776167958974,-0.0039031610358506,-1.7035181522369385
1741112980.9066172,-35.3604697,149.1582249,109.13,-0.0249256808310747,-0.0039017884992063,-1.7036818265914917
1741112981.0067642,-35.3604697,149.1582249,109.13,-0.0249256808310747,-0.0039017884992063,-1.7036818265914917
1741112981.1068954,-35.3604768,149.1581652,109.13999999999999,-0.0249437876045703,-0.0035693764220923,-1.7039101123809814
1741112981.207027,-35.3604768,149.1581652,109.13999999999999,-0.0249437876045703,-0.0035693764220923,-1.7039101123809814
1741112981.307148,-35.3604768,149.1581652,109.13999999999999,-0.0249437876045703,-0.0035693764220923,-1.7039101123809814
1741112981.4072683,-35.3604846,149.1581004,109.14999999999998,-0.0250791925936937,-0.0031441438477486,-1.7042704820632937
1741112981.5075054,-35.3604846,149.1581004,109.14999999999998,-0.0250791925936937,-0.0031441438477486,-1.7042704820632937
1741112981.6076694,-35.3604918,149.1580407,109.16999999999996,-0.0250689629465341,-0.0028633517213165,-1.704578161239624
1741112981.707917,-35.3604918,149.1580407,109.16999999999996,-0.0250689629465341,-0.0028633517213165,-1.704578161239624
1741112981.8080633,-35.3604918,149.1580407,109.16999999999996,-0.0250689629465341,-0.0028633517213165,-1.704578161239624
1741112981.9081593,-35.3604996,149.1579759,109.17999999999995,-0.0249748416244983,-0.0030384440906345,-1.7046386003494265
1741112982.0082674,-35.3604996,149.1579759,109.17999999999995,-0.0249748416244983,-0.0030384440906345,-1.7046386003494265
1741112982.1084108,-35.3605068,149.1579162,109.20000000000005,-0.024797860532999,-0.0036742631345987,-1.7046303749084473
1741112982.2085347,-35.3605068,149.1579162,109.20000000000005,-0.024797860532999,-0.0036742631345987,-1.7046303749084473
1741112982.3086493,-35.3605068,149.1579162,109.20000000000005,-0.024797860532999,-0.0036742631345987,-1.7046303749084473
1741112982.408947,-35.3605146,149.1578516,109.21000000000004,-0.02462306804955,-0.0044417986646294,-1.7048208713531494
1741112982.509079,-35.3605146,149.1578516,109.21000000000004,-0.02462306804955,-0.0044417986646294,-1.7048208713531494
1741112982.6091926,-35.3605218,149.1577919,109.22000000000003,-0.0430195331573486,-0.0048803482204675,-1.7041782140731812
1741112982.709458,-35.3605218,149.1577919,109.22000000000003,-0.0430195331573486,-0.0048803482204675,-1.7041782140731812
1741112982.8096232,-35.3605298,149.1577272,109.21000000000004,-0.1655160337686538,-0.0043198214843869,-1.7002055644989014
1741112982.9098527,-35.3605298,149.1577272,109.21000000000004,-0.1655160337686538,-0.0043198214843869,-1.7002055644989014
1741112983.0101252,-35.3605298,149.1577272,109.21000000000004,-0.1655160337686538,-0.0043198214843869,-1.7002055644989014
1741112983.110267,-35.3605378,149.1576677,109.19000000000005,-0.3261698186397552,-0.0044403509236872,-1.7062525749206543
1741112983.210521,-35.3605378,149.1576677,109.19000000000005,-0.3261698186397552,-0.0044403509236872,-1.7062525749206543
1741112983.3106844,-35.3605476,149.1576036,109.13,-0.5188561677932739,-0.0097435666248202,-1.7322746515274048
1741112983.4108088,-35.3605476,149.1576036,109.13,-0.5188561677932739,-0.0097435666248202,-1.7322746515274048
1741112983.510946,-35.3605476,149.1576036,109.13,-0.5188561677932739,-0.0097435666248202,-1.7322746515274048
1741112983.6110702,-35.3605585,149.1575447,108.97000000000003,-0.7032665014266968,-0.0189595632255077,-1.7748926877975464
1741112983.7112062,-35.3605585,149.1575447,108.97000000000003,-0.7032665014266968,-0.0189595632255077,-1.7748926877975464
1741112983.8113256,-35.3605733,149.1574815,108.69000000000005,-0.867378830909729,-0.0310940966010093,-1.848960518836975
1741112983.9114575,-35.3605733,149.1574815,108.69000000000005,-0.867378830909729,-0.0310940966010093,-1.848960518836975
1741112984.0116253,-35.3605733,149.1574815,108.69000000000005,-0.867378830909729,-0.0310940966010093,-1.848960518836975
1741112984.1118486,-35.360591,149.1574239,108.32000000000005,-0.9635315537452698,-0.0390732511878013,-1.952425837516785
1741112984.212253,-35.360591,149.1574239,108.32000000000005,-0.9635315537452698,-0.0390732511878013,-1.952425837516785
1741112984.3123822,-35.3606163,149.1573635,107.87,-1.015573501586914,-0.0342286005616188,-2.1079890727996826
1741112984.4125,-35.3606163,149.1573635,107.87,-1.015573501586914,-0.0342286005616188,-2.1079890727996826
1741112984.5126064,-35.3606163,149.1573635,107.87,-1.015573501586914,-0.0342286005616188,-2.1079890727996826
1741112984.6127398,-35.3606473,149.1573115,107.5,-1.0305284261703491,-0.0113466745242476,-2.2892987728118896
1741112984.7128892,-35.3606473,149.1573115,107.5,-1.0305284261703491,-0.0113466745242476,-2.2892987728118896
1741112984.8130658,-35.3606901,149.157263,107.29999999999995,-1.0233606100082395,0.0323134325444698,-2.5133485794067383
1741112984.9131591,-35.3606901,149.157263,107.29999999999995,-1.0233606100082395,0.0323134325444698,-2.5133485794067383
1741112985.0133123,-35.3606901,149.157263,107.29999999999995,-1.0233606100082395,0.0323134325444698,-2.5133485794067383
1741112985.1134534,-35.3607374,149.1572291,107.38999999999999,-0.9958029985427856,0.08346638828516,-2.7254059314727783
1741112985.2135828,-35.3607374,149.1572291,107.38999999999999,-0.9958029985427856,0.08346638828516,-2.7254059314727783
1741112985.3137016,-35.3607942,149.1572064,107.88,-0.9290176033973694,0.1410929411649704,-2.9338228702545166
1741112985.4139285,-35.3607942,149.1572064,107.88,-0.9290176033973694,0.1410929411649704,-2.9338228702545166
1741112985.5140646,-35.3607942,149.1572064,107.88,-0.9290176033973694,0.1410929411649704,-2.9338228702545166
1741112985.614187,-35.3608485,149.157198,108.70000000000005,-0.8281411528587341,0.1861873567104339,-3.083784580230713
1741112985.7143056,-35.3608485,149.157198,108.70000000000005,-0.8281411528587341,0.1861873567104339,-3.083784580230713
1741112985.8143988,-35.3609067,149.1571991,109.88,-0.6910577416419983,0.2089205980300903,3.094944715499878
1741112985.9145,-35.3609067,149.1571991,109.88,-0.6910577416419983,0.2089205980300903,3.094944715499878
1741112986.014618,-35.3609067,149.1571991,109.88,-0.6910577416419983,0.2089205980300903,3.094944715499878
1741112986.114745,-35.3609586,149.1572055,111.04999999999995,-0.5455273985862732,0.1947582215070724,3.0430920124053955
1741112986.2150073,-35.3609586,149.1572055,111.04999999999995,-0.5455273985862732,0.1947582215070724,3.0430920124053955
1741112986.3152978,-35.3610128,149.157215,112.16999999999996,-0.3734548091888428,0.1459474712610244,3.0131046772003174
1741112986.4153922,-35.3610128,149.157215,112.16999999999996,-0.3734548091888428,0.1459474712610244,3.0131046772003174
1741112986.5156288,-35.3610128,149.157215,112.16999999999996,-0.3734548091888428,0.1459474712610244,3.0131046772003174
1741112986.615744,-35.3610613,149.1572246,112.90999999999997,-0.2049445360898971,0.0808120444416999,2.994781970977783
1741112986.715849,-35.3610613,149.1572246,112.90999999999997,-0.2049445360898971,0.0808120444416999,2.994781970977783
1741112986.8159378,-35.3611124,149.1572352,113.29999999999995,-0.0139564033597707,-0.0005329652340151,2.9778425693511963
1741112986.9160151,-35.3611124,149.1572352,113.29999999999995,-0.0139564033597707,-0.0005329652340151,2.9778425693511963
1741112987.0161357,-35.3611124,149.1572352,113.29999999999995,-0.0139564033597707,-0.0005329652340151,2.9778425693511963
1741112987.116242,-35.3611584,149.1572448,113.24000000000001,0.1490998119115829,-0.0706500560045242,2.966176986694336
1741112987.216353,-35.3611584,149.1572448,113.24000000000001,0.1490998119115829,-0.0706500560045242,2.966176986694336
1741112987.3164449,-35.3612074,149.1572548,112.76999999999998,0.2796794176101684,-0.1261278092861175,2.9685657024383545
1741112987.4165285,-35.3612074,149.1572548,112.76999999999998,0.2796794176101684,-0.1261278092861175,2.9685657024383545
1741112987.5166218,-35.3612074,149.1572548,112.76999999999998,0.2796794176101684,-0.1261278092861175,2.9685657024383545
1741112987.6167448,-35.3612522,149.1572632,112.07000000000005,0.3519458472728729,-0.1515118330717086,2.99127197265625
1741112987.716886,-35.3612522,149.1572632,112.07000000000005,0.3519458472728729,-0.1515118330717086,2.99127197265625
1741112987.8169763,-35.361301,149.1572706,111.17999999999995,0.3841235339641571,-0.1469241231679916,3.0370118618011475
1741112987.9170682,-35.361301,149.1572706,111.17999999999995,0.3841235339641571,-0.1469241231679916,3.0370118618011475
1741112988.0171883,-35.361301,149.1572706,111.17999999999995,0.3841235339641571,-0.1469241231679916,3.0370118618011475
1741112988.1173184,-35.3613468,149.157275,110.38,0.3804999589920044,-0.1166186109185218,3.091776132583618
1741112988.21743,-35.3613468,149.157275,110.38,0.3804999589920044,-0.1166186109185218,3.091776132583618
1741112988.3175538,-35.3613975,149.1572764,109.71000000000004,0.3496869206428528,-0.0679412186145782,-3.129322290420532
1741112988.4176586,-35.3613975,149.1572764,109.71000000000004,0.3496869206428528,-0.0679412186145782,-3.129322290420532
1741112988.5177867,-35.3613975,149.1572764,109.71000000000004,0.3496869206428528,-0.0679412186145782,-3.129322290420532
1741112988.6178873,-35.361445,149.1572746,109.33000000000004,0.3022290468215942,-0.0241067428141832,-3.078573226928711
1741112988.7180414,-35.361445,149.1572746,109.33000000000004,0.3022290468215942,-0.0241067428141832,-3.078573226928711
1741112988.818158,-35.3614968,149.1572698,109.19000000000005,0.2361806184053421,0.0070070000365376,-3.0366051197052
1741112988.918244,-35.3614968,149.1572698,109.19000000000005,0.2361806184053421,0.0070070000365376,-3.0366051197052
1741112989.0184808,-35.3614968,149.1572698,109.19000000000005,0.2361806184053421,0.0070070000365376,-3.0366051197052
1741112989.118677,-35.3615445,149.1572633,109.21000000000004,0.1688542962074279,0.0144975306466221,-3.010097026824951
1741112989.2188346,-35.3615445,149.1572633,109.21000000000004,0.1688542962074279,0.0144975306466221,-3.010097026824951
1741112989.3189957,-35.3615961,149.157255,109.25999999999999,0.0983918085694313,0.0031771876383572,-2.9913721084594727
1741112989.419218,-35.3615961,149.157255,109.25999999999999,0.0983918085694313,0.0031771876383572,-2.9913721084594727
1741112989.519466,-35.3615961,149.157255,109.25999999999999,0.0983918085694313,0.0031771876383572,-2.9913721084594727
1741112989.6196234,-35.3616436,149.1572467,109.25999999999999,0.0424166806042194,-0.0156565122306346,-2.980473518371582
1741112989.7198002,-35.3616436,149.1572467,109.25999999999999,0.0424166806042194,-0.0156565122306346,-2.980473518371582
1741112989.8199463,-35.3616949,149.1572372,109.14999999999998,-0.004918445367366,-0.0340057164430618,-2.9740686416625977
1741112989.9200602,-35.3616949,149.1572372,109.14999999999998,-0.004918445367366,-0.0340057164430618,-2.9740686416625977
1741112990.020325,-35.3616949,149.1572372,109.14999999999998,-0.004918445367366,-0.0340057164430618,-2.9740686416625977
1741112990.1204772,-35.3617423,149.1572283,108.96000000000004,-0.0368329770863056,-0.0418404228985309,-2.9725067615509038
1741112990.220606,-35.3617423,149.1572283,108.96000000000004,-0.0368329770863056,-0.0418404228985309,-2.9725067615509038
1741112990.3207428,-35.3617939,149.1572186,108.73000000000002,-0.0605873242020607,-0.0381437167525291,-2.9748804569244385
1741112990.4208558,-35.3617939,149.1572186,108.73000000000002,-0.0605873242020607,-0.0381437167525291,-2.9748804569244385
1741112990.52098,-35.3617939,149.1572186,108.73000000000002,-0.0605873242020607,-0.0381437167525291,-2.9748804569244385
1741112990.6211045,-35.3618418,149.1572098,108.52999999999997,-0.0745579451322555,-0.0264387149363756,-2.9799275398254395
1741112990.7212317,-35.3618418,149.1572098,108.52999999999997,-0.0745579451322555,-0.0264387149363756,-2.9799275398254395
1741112990.821377,-35.361894,149.1572007,108.38999999999999,-0.082746610045433,-0.0113223865628242,-2.9870400428771973
1741112990.9214976,-35.361894,149.1572007,108.38999999999999,-0.082746610045433,-0.0113223865628242,-2.9870400428771973
1741112991.0217605,-35.361894,149.1572007,108.38999999999999,-0.082746610045433,-0.0113223865628242,-2.9870400428771973
1741112991.1218913,-35.3619425,149.1571926,108.34000000000003,-0.084512211382389,-0.0006244453834369,-2.9938201904296875
1741112991.22214,-35.3619425,149.1571926,108.34000000000003,-0.084512211382389,-0.0006244453834369,-2.9938201904296875
1741112991.3222878,-35.3619951,149.1571842,108.35000000000002,-0.0810884088277816,0.0043000327423214,-3.000584363937378
1741112991.422425,-35.3619951,149.1571842,108.35000000000002,-0.0810884088277816,0.0043000327423214,-3.000584363937378
1741112991.5225573,-35.3619951,149.1571842,108.35000000000002,-0.0810884088277816,0.0043000327423214,-3.000584363937378
1741112991.622803,-35.3620437,149.1571768,108.38,-0.0744101181626319,0.0030871867202222,-3.005936861038208
1741112991.72307,-35.3620437,149.1571768,108.38,-0.0744101181626319,0.0030871867202222,-3.005936861038208
1741112991.823196,-35.3620964,149.1571692,108.40999999999997,-0.0651900023221969,-0.0016702973516657,-3.0107421875
1741112991.923321,-35.3620964,149.1571692,108.40999999999997,-0.0651900023221969,-0.0016702973516657,-3.0107421875
1741112992.023563,-35.3620964,149.1571692,108.40999999999997,-0.0651900023221969,-0.0016702973516657,-3.0107421875
1741112992.1237135,-35.3621452,149.1571624,108.39999999999998,-0.0564020946621894,-0.0059825018979609,-3.0144221782684326
1741112992.223849,-35.3621452,149.1571624,108.39999999999998,-0.0564020946621894,-0.0059825018979609,-3.0144221782684326
1741112992.323977,-35.362198,149.1571551,108.38,-0.0476021207869052,-0.0079933442175388,-3.017625331878662
1741112992.4240816,-35.362198,149.1571551,108.38,-0.0476021207869052,-0.0079933442175388,-3.017625331878662
1741112992.5241852,-35.362198,149.1571551,108.38,-0.0476021207869052,-0.0079933442175388,-3.017625331878662
1741112992.624297,-35.3622469,149.1571486,108.36000000000001,-0.0405416823923587,-0.006888348609209,-3.0199759006500244
1741112992.7244494,-35.3622469,149.1571486,108.36000000000001,-0.0405416823923587,-0.006888348609209,-3.0199759006500244
1741112992.824647,-35.3623,149.1571417,108.33000000000004,-0.0342124886810779,-0.0034570640418678,-3.021836757659912
1741112992.9247577,-35.3623,149.1571417,108.33000000000004,-0.0342124886810779,-0.0034570640418678,-3.021836757659912
1741112993.0248983,-35.3623,149.1571417,108.33000000000004,-0.0342124886810779,-0.0034570640418678,-3.021836757659912
1741112993.1250465,-35.362349,149.1571353,108.33000000000004,-0.0294649507850408,0.000242076406721,-3.0229806900024414
1741112993.2251968,-35.362349,149.1571353,108.33000000000004,-0.0294649507850408,0.000242076406721,-3.0229806900024414
1741112993.3253462,-35.3624022,149.1571285,108.35000000000002,-0.0253380611538887,0.0031966597307473,-3.023629903793335
1741112993.425563,-35.3624022,149.1571285,108.35000000000002,-0.0253380611538887,0.0031966597307473,-3.023629903793335
1741112993.5257337,-35.3624022,149.1571285,108.35000000000002,-0.0253380611538887,0.0031966597307473,-3.023629903793335
1741112993.6258452,-35.3624514,149.1571223,108.38,-0.0224042981863021,0.0041129048913717,-3.0237765312194824
1741112993.726019,-35.3624514,149.1571223,108.38,-0.0224042981863021,0.0041129048913717,-3.0237765312194824
1741112993.8261554,-35.3625047,149.1571155,108.41999999999996,-0.0200056042522192,0.0033345408737659,-3.0235743522644043
1741112993.9263785,-35.3625047,149.1571155,108.41999999999996,-0.0200056042522192,0.0033345408737659,-3.0235743522644043
1741112994.0265265,-35.3625047,149.1571155,108.41999999999996,-0.0200056042522192,0.0033345408737659,-3.0235743522644043
1741112994.1268077,-35.3625538,149.1571092,108.45000000000005,-0.0185064394026994,0.0017921575345098,-3.023191213607788
1741112994.227092,-35.3625538,149.1571092,108.45000000000005,-0.0185064394026994,0.0017921575345098,-3.023191213607788
1741112994.327222,-35.3626072,149.1571024,108.48000000000002,-0.0555309988558292,0.0004747816419694,-3.0207059383392334
1741112994.4274924,-35.3626072,149.1571024,108.48000000000002,-0.0555309988558292,0.0004747816419694,-3.0207059383392334
1741112994.5276363,-35.3626072,149.1571024,108.48000000000002,-0.0555309988558292,0.0004747816419694,-3.0207059383392334
1741112994.6277666,-35.3626564,149.1570964,108.49000000000001,-0.1833564341068267,0.0007653454667888,-3.0169029235839844
1741112994.7278924,-35.3626564,149.1570964,108.49000000000001,-0.1833564341068267,0.0007653454667888,-3.0169029235839844
1741112994.8280191,-35.3627098,149.1570907,108.48000000000002,-0.3568324148654938,7.328626816160977e-05,-3.0267200469970703
1741112994.9281273,-35.3627098,149.1570907,108.48000000000002,-0.3568324148654938,7.328626816160977e-05,-3.0267200469970703
1741112995.0282948,-35.3627098,149.1570907,108.48000000000002,-0.3568324148654938,7.328626816160977e-05,-3.0267200469970703
1741112995.1284757,-35.3627592,149.1570869,108.41999999999996,-0.4965187609195709,-0.0053434455767273,-3.0552217960357666
1741112995.2287176,-35.3627592,149.1570869,108.41999999999996,-0.4965187609195709,-0.0053434455767273,-3.0552217960357666
1741112995.3289435,-35.362813,149.1570854,108.28999999999996,-0.5972097516059875,-0.0108757456764578,-3.106184720993042
1741112995.429031,-35.362813,149.1570854,108.28999999999996,-0.5972097516059875,-0.0108757456764578,-3.106184720993042
1741112995.5291555,-35.362813,149.1570854,108.28999999999996,-0.5972097516059875,-0.0108757456764578,-3.106184720993042
1741112995.6293397,-35.362863,149.1570872,108.13999999999999,-0.6435628533363342,-0.0061571318656206,3.1114096641540527
1741112995.7294872,-35.362863,149.1570872,108.13999999999999,-0.6435628533363342,-0.0061571318656206,3.1114096641540527
1741112995.8296375,-35.3629174,149.1570939,108.01999999999998,-0.652638852596283,0.0145066166296601,3.022768259048462
1741112995.929783,-35.3629174,149.1570939,108.01999999999998,-0.652638852596283,0.0145066166296601,3.022768259048462
1741112996.029991,-35.3629174,149.1570939,108.01999999999998,-0.652638852596283,0.0145066166296601,3.022768259048462
1741112996.13012,-35.3629675,149.1571054,108.03999999999996,-0.629835307598114,0.0457300320267677,2.93276047706604
1741112996.2302592,-35.3629675,149.1571054,108.03999999999996,-0.629835307598114,0.0457300320267677,2.93276047706604
1741112996.3303714,-35.363021,149.1571238,108.28999999999996,-0.5739179849624634,0.0849780514836311,2.8391711711883545
1741112996.430492,-35.363021,149.1571238,108.28999999999996,-0.5739179849624634,0.0849780514836311,2.8391711711883545
1741112996.5306125,-35.363021,149.1571238,108.28999999999996,-0.5739179849624634,0.0849780514836311,2.8391711711883545
1741112996.630727,-35.3630689,149.1571457,108.75,-0.4937309026718139,0.1169529855251312,2.766709804534912
1741112996.7308962,-35.3630689,149.1571457,108.75,-0.4937309026718139,0.1169529855251312,2.766709804534912
1741112996.8311083,-35.3631189,149.1571733,109.46000000000004,-0.3806127607822418,0.1377224177122116,2.7094221115112305
1741112996.9312725,-35.3631189,149.1571733,109.46000000000004,-0.3806127607822418,0.1377224177122116,2.7094221115112305
1741112997.031421,-35.3631189,149.1571733,109.46000000000004,-0.3806127607822418,0.1377224177122116,2.7094221115112305
1741112997.1315825,-35.3631636,149.1572009,110.22000000000003,-0.2636590600013733,0.139808714389801,2.675391912460327
1741112997.231721,-35.3631636,149.1572009,110.22000000000003,-0.2636590600013733,0.139808714389801,2.675391912460327
1741112997.331962,-35.3632108,149.1572318,111.03999999999996,-0.141258105635643,0.1259081363677978,2.6539525985717773
1741112997.432076,-35.3632108,149.1572318,111.03999999999996,-0.141258105635643,0.1259081363677978,2.6539525985717773
1741112997.5322254,-35.3632108,149.1572318,111.03999999999996,-0.141258105635643,0.1259081363677978,2.6539525985717773
1741112997.632353,-35.3632535,149.1572607,111.72000000000003,-0.0452834479510784,0.1056212186813354,2.644050121307373
1741112997.732484,-35.3632535,149.1572607,111.72000000000003,-0.0452834479510784,0.1056212186813354,2.644050121307373
1741112997.832621,-35.3632992,149.1572918,112.32000000000005,0.0335349738597869,0.0841173827648162,2.6416635513305664
1741112997.9328966,-35.3632992,149.1572918,112.32000000000005,0.0335349738597869,0.0841173827648162,2.6416635513305664
1741112998.033137,-35.3632992,149.1572918,112.32000000000005,0.0335349738597869,0.0841173827648162,2.6416635513305664
1741112998.1332672,-35.3633412,149.1573201,112.75,0.0831092968583107,0.0706511214375495,2.64607834815979
1741112998.2333922,-35.3633412,149.1573201,112.75,0.0831092968583107,0.0706511214375495,2.64607834815979
1741112998.333509,-35.3633867,149.1573502,113.13999999999999,0.1151478886604309,0.0668153762817382,2.6569247245788574
1741112998.4336424,-35.3633867,149.1573502,113.13999999999999,0.1151478886604309,0.0668153762817382,2.6569247245788574
1741112998.533764,-35.3633867,149.1573502,113.13999999999999,0.1151478886604309,0.0668153762817382,2.6569247245788574
1741112998.633992,-35.3634289,149.1573773,113.49000000000001,0.1286536455154419,0.0722976550459861,2.670931577682495
1741112998.7342308,-35.3634289,149.1573773,113.49000000000001,0.1286536455154419,0.0722976550459861,2.670931577682495
1741112998.834383,-35.3634748,149.1574057,113.88999999999999,0.1299037486314773,0.08367770165205,2.688223600387573
1741112998.9345362,-35.3634748,149.1574057,113.88999999999999,0.1299037486314773,0.08367770165205,2.688223600387573
1741112999.0346773,-35.3634748,149.1574057,113.88999999999999,0.1299037486314773,0.08367770165205,2.688223600387573
1741112999.134814,-35.3635174,149.1574311,114.32000000000005,0.1222416013479232,0.0942364782094955,2.704307079315185
1741112999.2349474,-35.3635174,149.1574311,114.32000000000005,0.1222416013479232,0.0942364782094955,2.704307079315185
1741112999.3350458,-35.3635638,149.1574577,114.85000000000002,0.1074928194284439,0.1016142442822456,2.7203173637390137
1741112999.4351604,-35.3635638,149.1574577,114.85000000000002,0.1074928194284439,0.1016142442822456,2.7203173637390137
1741112999.5353763,-35.3635638,149.1574577,114.85000000000002,0.1074928194284439,0.1016142442822456,2.7203173637390137
1741112999.635593,-35.3636068,149.1574815,115.37,0.0901887565851211,0.1033009514212608,2.7330617904663086
1741112999.735853,-35.3636068,149.1574815,115.37,0.0901887565851211,0.1033009514212608,2.7330617904663086
1741112999.8360095,-35.3636536,149.1575066,115.92999999999995,0.0701013579964637,0.10072922706604,2.744550466537476
1741112999.9361498,-35.3636536,149.1575066,115.92999999999995,0.0701013579964637,0.10072922706604,2.744550466537476
1741113000.0363991,-35.3636536,149.1575066,115.92999999999995,0.0701013579964637,0.10072922706604,2.744550466537476
1741113000.1366353,-35.3636968,149.1575293,116.44000000000005,0.0523505061864852,0.0969781503081321,2.753169059753418
1741113000.236878,-35.3636968,149.1575293,116.44000000000005,0.0523505061864852,0.0969781503081321,2.753169059753418
1741113000.3369894,-35.3637438,149.1575534,116.98000000000002,0.03522564843297,0.0943930447101593,2.760504722595215
1741113000.437116,-35.3637438,149.1575534,116.98000000000002,0.03522564843297,0.0943930447101593,2.760504722595215
1741113000.537249,-35.3637438,149.1575534,116.98000000000002,0.03522564843297,0.0943930447101593,2.760504722595215
1741113000.6373873,-35.3637874,149.1575754,117.46000000000004,0.0217773262411355,0.0949785709381103,2.7655351161956787
1741113000.737502,-35.3637874,149.1575754,117.46000000000004,0.0217773262411355,0.0949785709381103,2.7655351161956787
1741113000.8377457,-35.3638347,149.157599,117.99000000000001,0.0102881370112299,0.0988260880112648,2.769488573074341
1741113000.9379432,-35.3638347,149.157599,117.99000000000001,0.0102881370112299,0.0988260880112648,2.769488573074341
1741113001.0380857,-35.3638347,149.157599,117.99000000000001,0.0102881370112299,0.0988260880112648,2.769488573074341
1741113001.1382382,-35.3638785,149.1576207,118.49000000000001,0.002643660409376,0.1039743199944496,2.7720706462860107
1741113001.2383928,-35.3638785,149.1576207,118.49000000000001,0.002643660409376,0.1039743199944496,2.7720706462860107
1741113001.3386288,-35.3639261,149.157644,119.08000000000004,-0.0027140129823237,0.1094207912683487,2.774044990539551
1741113001.43897,-35.3639261,149.157644,119.08000000000004,-0.0027140129823237,0.1094207912683487,2.774044990539551
1741113001.539129,-35.3639261,149.157644,119.08000000000004,-0.0027140129823237,0.1094207912683487,2.774044990539551
1741113001.6393583,-35.3639701,149.1576655,119.64999999999998,-0.0054561933502554,0.1130844429135322,2.7754034996032715
1741113001.7395792,-35.3639701,149.1576655,119.64999999999998,-0.0054561933502554,0.1130844429135322,2.7754034996032715
1741113001.839825,-35.3640179,149.1576888,120.28999999999996,-0.0066124098375439,0.1152576133608818,2.77666449546814
1741113001.9401095,-35.3640179,149.1576888,120.28999999999996,-0.0066124098375439,0.1152576133608818,2.77666449546814
1741113002.0402567,-35.3640179,149.1576888,120.28999999999996,-0.0066124098375439,0.1152576133608818,2.77666449546814
1741113002.1404698,-35.3640621,149.1577102,120.88999999999999,-0.0064734569750726,0.1160081923007965,2.7777762413024902
1741113002.2406137,-35.3640621,149.1577102,120.88999999999999,-0.0064734569750726,0.1160081923007965,2.7777762413024902
1741113002.3407214,-35.3641101,149.1577333,121.55999999999995,-0.0056939213536679,0.1163729503750801,2.778949499130249
1741113002.4408429,-35.3641101,149.1577333,121.55999999999995,-0.0056939213536679,0.1163729503750801,2.778949499130249
1741113002.5409534,-35.3641101,149.1577333,121.55999999999995,-0.0056939213536679,0.1163729503750801,2.778949499130249
1741113002.6410494,-35.3641545,149.1577547,122.17999999999995,-0.0045138224959373,0.1171785369515419,2.7801952362060547
1741113002.7411454,-35.3641545,149.1577547,122.17999999999995,-0.0045138224959373,0.1171785369515419,2.7801952362060547
1741113002.8412435,-35.3642028,149.1577777,122.85000000000002,-0.0031384711619466,0.1189829781651496,2.781588077545166
1741113002.9413412,-35.3642028,149.1577777,122.85000000000002,-0.0031384711619466,0.1189829781651496,2.781588077545166
1741113003.0414567,-35.3642028,149.1577777,122.85000000000002,-0.0031384711619466,0.1189829781651496,2.781588077545166
1741113003.1415858,-35.3642474,149.157799,123.49000000000001,-0.0023331358097493,0.1213914081454277,2.7830214500427246
1741113003.241716,-35.3642474,149.157799,123.49000000000001,-0.0023331358097493,0.1213914081454277,2.7830214500427246
1741113003.3418517,-35.3642959,149.157822,124.20000000000005,-0.0016877793241292,0.1241565346717834,2.784765243530273
1741113003.4421363,-35.3642959,149.157822,124.20000000000005,-0.0016877793241292,0.1241565346717834,2.784765243530273
1741113003.542287,-35.3642959,149.157822,124.20000000000005,-0.0016877793241292,0.1241565346717834,2.784765243530273
1741113003.6425366,-35.3643408,149.1578431,124.87,-0.001176954479888,0.1263422816991806,2.7864367961883545
1741113003.7427063,-35.3643408,149.1578431,124.87,-0.001176954479888,0.1263422816991806,2.7864367961883545
1741113003.842837,-35.3643895,149.1578659,125.60000000000002,-0.0010664018336683,0.1278180330991745,2.78842830657959
1741113003.9430935,-35.3643895,149.1578659,125.60000000000002,-0.0010664018336683,0.1278180330991745,2.78842830657959
1741113004.0432465,-35.3643895,149.1578659,125.60000000000002,-0.0010664018336683,0.1278180330991745,2.78842830657959
1741113004.1433983,-35.3644345,149.1578869,126.29999999999995,-0.0012857300462201,0.1284675598144531,2.790358066558838
1741113004.2435226,-35.3644345,149.1578869,126.29999999999995,-0.0012857300462201,0.1284675598144531,2.790358066558838
1741113004.3436325,-35.3644834,149.1579096,127.05999999999995,-0.0018599805189296,0.1287264376878738,2.7923452854156494
1741113004.443739,-35.3644834,149.1579096,127.05999999999995,-0.0018599805189296,0.1287264376878738,2.7923452854156494
1741113004.5440257,-35.3644834,149.1579096,127.05999999999995,-0.0018599805189296,0.1287264376878738,2.7923452854156494
1741113004.6441154,-35.3645287,149.1579305,127.75999999999999,-0.0028909242246299,0.1288724690675735,2.794042587280273
1741113004.744209,-35.3645287,149.1579305,127.75999999999999,-0.0028909242246299,0.1288724690675735,2.794042587280273
1741113004.8443236,-35.3645779,149.157953,128.52999999999997,-0.0042906813323497,0.129434198141098,2.7958240509033203
1741113004.9444478,-35.3645779,149.157953,128.52999999999997,-0.0042906813323497,0.129434198141098,2.7958240509033203
1741113005.0445929,-35.3646233,149.1579738,129.25,-0.005678046029061,0.1303703039884567,2.797369241714477
1741113005.1447127,-35.3646233,149.1579738,129.25,-0.005678046029061,0.1303703039884567,2.797369241714477
1741113005.2448738,-35.3646233,149.1579738,129.25,-0.005678046029061,0.1303703039884567,2.797369241714477
1741113005.3450277,-35.3646727,149.1579962,130.02999999999997,-0.0072260648012161,0.1315599381923675,2.7989022731781006
1741113005.4452734,-35.3646727,149.1579962,130.02999999999997,-0.0072260648012161,0.1315599381923675,2.7989022731781006
1741113005.5454092,-35.3647184,149.1580168,130.76,-0.0085544092580676,0.132713109254837,2.8002161979675293
1741113005.6455274,-35.3647184,149.1580168,130.76,-0.0085544092580676,0.132713109254837,2.8002161979675293
1741113005.745662,-35.3647184,149.1580168,130.76,-0.0085544092580676,0.132713109254837,2.8002161979675293
1741113005.8457935,-35.3647679,149.1580392,131.57000000000005,-0.0099082002416253,0.1337621361017227,2.8015239238739014
1741113005.9458947,-35.3647679,149.1580392,131.57000000000005,-0.0099082002416253,0.1337621361017227,2.8015239238739014
1741113006.0459995,-35.3648137,149.1580598,132.32000000000005,-0.011017482727766,0.1344009935855865,2.8026442527771
1741113006.1461043,-35.3648137,149.1580598,132.32000000000005,-0.011017482727766,0.1344009935855865,2.8026442527771
1741113006.2462912,-35.3648137,149.1580598,132.32000000000005,-0.011017482727766,0.1344009935855865,2.8026442527771
1741113006.3465486,-35.3648634,149.158082,133.13,-0.0120040802285075,0.1349121332168579,2.803773164749145
1741113006.4467895,-35.3648634,149.158082,133.13,-0.0120040802285075,0.1349121332168579,2.803773164749145
1741113006.5469167,-35.3649093,149.1581025,133.89999999999998,-0.0131200151517987,0.1351486444473266,2.8046655654907227
1741113006.6471405,-35.3649093,149.1581025,133.89999999999998,-0.0131200151517987,0.1351486444473266,2.8046655654907227
1741113006.7473123,-35.3649093,149.1581025,133.89999999999998,-0.0131200151517987,0.1351486444473266,2.8046655654907227
1741113006.847449,-35.3649591,149.1581247,134.72000000000003,-0.0144192166626453,0.1352305710315704,2.8055670261383057
1741113006.9475489,-35.3649591,149.1581247,134.72000000000003,-0.0144192166626453,0.1352305710315704,2.8055670261383057
1741113007.0476477,-35.3650051,149.1581451,135.49,-0.0154966181144118,0.1352855861186981,2.8063368797302246
1741113007.1477537,-35.3650051,149.1581451,135.49,-0.0154966181144118,0.1352855861186981,2.8063368797302246
1741113007.2478786,-35.3650051,149.1581451,135.49,-0.0154966181144118,0.1352855861186981,2.8063368797302246
1741113007.3479848,-35.365055,149.1581673,136.30999999999995,-0.0165682025253772,0.1353939175605774,2.8070502281188965
1741113007.4480894,-35.365055,149.1581673,136.30999999999995,-0.0165682025253772,0.1353939175605774,2.8070502281188965
1741113007.5482292,-35.3651011,149.1581877,137.08000000000004,-0.017380952835083,0.1355660855770111,2.8076207637786865
1741113007.6483347,-35.3651011,149.1581877,137.08000000000004,-0.017380952835083,0.1355660855770111,2.8076207637786865
1741113007.7484646,-35.3651011,149.1581877,137.08000000000004,-0.017380952835083,0.1355660855770111,2.8076207637786865
1741113007.8485887,-35.3651511,149.1582098,137.90999999999997,-0.0183833204209804,0.1360161304473877,2.80810284614563
1741113007.948692,-35.3651511,149.1582098,137.90999999999997,-0.0183833204209804,0.1360161304473877,2.80810284614563
1741113008.048794,-35.3651973,149.1582301,138.67999999999995,-0.0192408580332994,0.1363960653543472,2.808501005172729
1741113008.1488752,-35.3651973,149.1582301,138.67999999999995,-0.0192408580332994,0.1363960653543472,2.808501005172729
1741113008.2489765,-35.3651973,149.1582301,138.67999999999995,-0.0192408580332994,0.1363960653543472,2.808501005172729
1741113008.3490946,-35.3652473,149.1582522,139.51,-0.0199750754982233,0.1365387290716171,2.808910131454468
1741113008.4492085,-35.3652473,149.1582522,139.51,-0.0199750754982233,0.1365387290716171,2.808910131454468
1741113008.5493426,-35.3652935,149.1582726,140.27999999999997,-0.0206745266914367,0.1363641768693924,2.809195280075073
1741113008.6495433,-35.3652935,149.1582726,140.27999999999997,-0.0206745266914367,0.1363641768693924,2.809195280075073
1741113008.749783,-35.3652935,149.1582726,140.27999999999997,-0.0206745266914367,0.1363641768693924,2.809195280075073
1741113008.8500147,-35.3653435,149.1582946,141.11,-0.0213260315358638,0.1360710263252258,2.8094613552093506
1741113008.9501245,-35.3653435,149.1582946,141.11,-0.0213260315358638,0.1360710263252258,2.8094613552093506
1741113009.0502129,-35.3653898,149.158315,141.88,-0.0218960959464311,0.1360536962747573,2.8096346855163574
1741113009.1502967,-35.3653898,149.158315,141.88,-0.0218960959464311,0.1360536962747573,2.8096346855163574
1741113009.2503848,-35.3653898,149.158315,141.88,-0.0218960959464311,0.1360536962747573,2.8096346855163574
1741113009.3504982,-35.3654399,149.1583371,142.71000000000004,-0.0224936734884977,0.1362449377775192,2.8097617626190186
1741113009.4506378,-35.3654399,149.1583371,142.71000000000004,-0.0224936734884977,0.1362449377775192,2.8097617626190186
1741113009.5507014,-35.3654862,149.1583574,143.48000000000002,-0.0229962486773729,0.1366235315799713,2.809824228286743
1741113009.6508193,-35.3654862,149.1583574,143.48000000000002,-0.0229962486773729,0.1366235315799713,2.809824228286743
1741113009.750964,-35.3654862,149.1583574,143.48000000000002,-0.0229962486773729,0.1366235315799713,2.809824228286743
1741113009.8510754,-35.3655363,149.1583795,144.32000000000005,-0.0235087741166353,0.1371912807226181,2.809828996658325
1741113009.9513168,-35.3655363,149.1583795,144.32000000000005,-0.0235087741166353,0.1371912807226181,2.809828996658325
1741113010.051441,-35.3655826,149.1583999,145.09000000000003,-0.0239415504038333,0.1376563906669616,2.80979323387146
1741113010.151544,-35.3655826,149.1583999,145.09000000000003,-0.0239415504038333,0.1376563906669616,2.80979323387146
1741113010.2516837,-35.3655826,149.1583999,145.09000000000003,-0.0239415504038333,0.1376563906669616,2.80979323387146
1741113010.3518062,-35.3655826,149.1583999,145.09000000000003,-0.0243729744106531,0.1377622932195663,2.8097407817840576
1741113010.4518876,-35.3655826,149.1583999,145.09000000000003,-0.0243729744106531,0.1377622932195663,2.8097407817840576
1741113010.5520177,-35.3655826,149.1583999,145.09000000000003,-0.0266571193933486,0.1375984400510788,2.809754610061645
1741113010.6522398,-35.3655826,149.1583999,145.09000000000003,-0.0266571193933486,0.1375984400510788,2.809754610061645
1741113010.7523794,-35.3657098,149.1584561,147.22000000000003,-0.0266571193933486,0.1375984400510788,2.809754610061645
1741113010.8524892,-35.3657098,149.1584561,147.22000000000003,-0.1086670085787773,0.1398809999227523,2.813084602355957
1741113010.952728,-35.3657098,149.1584561,147.22000000000003,-0.1086670085787773,0.1398809999227523,2.813084602355957
1741113011.0528505,-35.3657098,149.1584561,147.22000000000003,-0.2582019865512848,0.1456215679645538,2.811437129974365
1741113011.1530104,-35.3657098,149.1584561,147.22000000000003,-0.2582019865512848,0.1456215679645538,2.811437129974365
1741113011.25315,-35.3658056,149.1585001,148.83000000000004,-0.2582019865512848,0.1456215679645538,2.811437129974365
1741113011.353284,-35.3658056,149.1585001,148.83000000000004,-0.4453442692756653,0.1488000452518463,2.7903051376342773
1741113011.453398,-35.3658056,149.1585001,148.83000000000004,-0.4453442692756653,0.1488000452518463,2.7903051376342773
1741113011.5535276,-35.3658056,149.1585001,148.83000000000004,-0.5984148979187012,0.1404238045215606,2.7538001537323
1741113011.6536474,-35.3658056,149.1585001,148.83000000000004,-0.5984148979187012,0.1404238045215606,2.7538001537323
1741113011.7537768,-35.3658994,149.1585508,150.33000000000004,-0.5984148979187012,0.1404238045215606,2.7538001537323
1741113011.8538756,-35.3658994,149.1585508,150.33000000000004,-0.709131121635437,0.1208214536309242,2.70102334022522
1741113011.953992,-35.3658994,149.1585508,150.33000000000004,-0.709131121635437,0.1208214536309242,2.70102334022522
1741113012.054113,-35.3658994,149.1585508,150.33000000000004,-0.7601399421691895,0.1009847596287727,2.641176462173462
1741113012.1542442,-35.3658994,149.1585508,150.33000000000004,-0.7601399421691895,0.1009847596287727,2.641176462173462
1741113012.2543535,-35.3659898,149.1586138,151.39999999999998,-0.7601399421691895,0.1009847596287727,2.641176462173462
1741113012.354478,-35.3659898,149.1586138,151.39999999999998,-0.7723963856697083,0.0860140994191169,2.5638813972473145
1741113012.4545915,-35.3659898,149.1586138,151.39999999999998,-0.7723963856697083,0.0860140994191169,2.5638813972473145
1741113012.5547006,-35.3659898,149.1586138,151.39999999999998,-0.7549510598182678,0.0816841572523117,2.48390531539917
1741113012.65495,-35.3659898,149.1586138,151.39999999999998,-0.7549510598182678,0.0816841572523117,2.48390531539917
1741113012.7550964,-35.3660743,149.1586936,152.15999999999997,-0.7549510598182678,0.0816841572523117,2.48390531539917
1741113012.8553324,-35.3660743,149.1586936,152.15999999999997,-0.712232768535614,0.0852886289358139,2.3954555988311768
1741113012.9555707,-35.3660743,149.1586936,152.15999999999997,-0.712232768535614,0.0852886289358139,2.3954555988311768
1741113013.05569,-35.3660743,149.1586936,152.15999999999997,-0.653413712978363,0.0906291306018829,2.32049298286438
1741113013.155829,-35.3660743,149.1586936,152.15999999999997,-0.653413712978363,0.0906291306018829,2.32049298286438
1741113013.2560816,-35.3661489,149.1587907,153.02999999999997,-0.653413712978363,0.0906291306018829,2.32049298286438
1741113013.3561862,-35.3661489,149.1587907,153.02999999999997,-0.5704023241996765,0.0912839248776435,2.253525495529175
1741113013.4563034,-35.3661489,149.1587907,153.02999999999997,-0.5704023241996765,0.0912839248776435,2.253525495529175
1741113013.5564268,-35.3661489,149.1587907,153.02999999999997,-0.4802579581737518,0.0823458880186081,2.206970691680908
1741113013.6565354,-35.3661489,149.1587907,153.02999999999997,-0.4802579581737518,0.0823458880186081,2.206970691680908
1741113013.756837,-35.3662133,149.158899,154.01,-0.4802579581737518,0.0823458880186081,2.206970691680908
1741113013.857095,-35.3662133,149.158899,154.01,-0.3771001994609833,0.0617935769259929,2.170862913131714
1741113013.9573407,-35.3662133,149.158899,154.01,-0.3771001994609833,0.0617935769259929,2.170862913131714
1741113014.0574918,-35.3662133,149.158899,154.01,-0.2863864302635193,0.0367495194077491,2.1470539569854736
1741113014.157616,-35.3662133,149.158899,154.01,-0.2863864302635193,0.0367495194077491,2.1470539569854736
1741113014.2577512,-35.3662715,149.1590115,154.65999999999997,-0.2863864302635193,0.0367495194077491,2.1470539569854736
1741113014.3579,-35.3662715,149.1590115,154.65999999999997,-0.2008591443300247,0.0084397438913583,2.128561019897461
1741113014.4580064,-35.3662715,149.1590115,154.65999999999997,-0.2008591443300247,0.0084397438913583,2.128561019897461
1741113014.5581355,-35.3662715,149.1590115,154.65999999999997,-0.1367835998535156,-0.0145604200661182,2.116577386856079
1741113014.6582506,-35.3662715,149.1590115,154.65999999999997,-0.1367835998535156,-0.0145604200661182,2.116577386856079
1741113014.758384,-35.3663267,149.1591253,154.72000000000003,-0.1367835998535156,-0.0145604200661182,2.116577386856079
1741113014.8585508,-35.3663267,149.1591253,154.72000000000003,-0.0831146389245987,-0.0336548648774623,2.108165740966797
1741113014.9587836,-35.3663267,149.1591253,154.72000000000003,-0.0831146389245987,-0.0336548648774623,2.108165740966797
1741113015.0589015,-35.3663267,149.1591253,154.72000000000003,-0.0460129715502262,-0.0455502793192863,2.103947401046753
1741113015.1591454,-35.3663267,149.1591253,154.72000000000003,-0.0460129715502262,-0.0455502793192863,2.103947401046753
1741113015.259292,-35.3663805,149.1592394,154.29999999999995,-0.0460129715502262,-0.0455502793192863,2.103947401046753
1741113015.3595307,-35.3663805,149.1592394,154.29999999999995,-0.0165618024766445,-0.0530124045908451,2.1024703979492188
1741113015.4597716,-35.3663805,149.1592394,154.29999999999995,-0.0165618024766445,-0.0530124045908451,2.1024703979492188
1741113015.5599272,-35.3663805,149.1592394,154.29999999999995,0.0030467337928712,-0.0568627081811428,2.103459119796753
