Time,Lat,Lon,Alt,Heading,Roll,Pitch,Yaw
1741631454.964831,-35.3572674,149.1658758,666.3,17,-0.02564314194023609,0.06021582707762718,0.31368958950042725
1741631455.0649683,-35.3572674,149.1658758,666.3,17,-0.02564314194023609,0.06021582707762718,0.31368958950042725
1741631455.1651537,-35.3572674,149.1658758,666.3,17,-0.02564314194023609,0.06021582707762718,0.31368958950042725
1741631455.265293,-35.3572165,149.1658951,666.71,17,-0.025882339105010033,0.060017406940460205,0.3133777976036072
1741631455.365452,-35.3572165,149.1658951,666.71,17,-0.025882339105010033,0.060017406940460205,0.3133777976036072
1741631455.4657342,-35.3571696,149.1659128,667.08,17,-0.02614954486489296,0.059895679354667664,0.31309354305267334
1741631455.5658753,-35.3571696,149.1659128,667.08,17,-0.02614954486489296,0.059895679354667664,0.31309354305267334
1741631455.6661193,-35.3571696,149.1659128,667.08,17,-0.02614954486489296,0.059895679354667664,0.31309354305267334
1741631455.7662935,-35.3571187,149.165932,667.48,17,-0.02641342207789421,0.05983053892850876,0.31277522444725037
1741631455.8664691,-35.3571187,149.165932,667.48,17,-0.02641342207789421,0.05983053892850876,0.31277522444725037
1741631455.9666653,-35.3570717,149.1659497,667.86,17,-0.026624983176589012,0.06003269925713539,0.31245559453964233
1741631456.0668182,-35.3570717,149.1659497,667.86,17,-0.026624983176589012,0.06003269925713539,0.31245559453964233
1741631456.1670828,-35.3570717,149.1659497,667.86,17,-0.026624983176589012,0.06003269925713539,0.31245559453964233
1741631456.2672448,-35.3570208,149.1659689,668.27,17,-0.026827573776245117,0.060389213263988495,0.3120748996734619
1741631456.3675263,-35.3570208,149.1659689,668.27,17,-0.026827573776245117,0.060389213263988495,0.3120748996734619
1741631456.4676926,-35.3569738,149.1659865,668.64,17,-0.027010152116417885,0.06073906645178795,0.31157734990119934
1741631456.5678313,-35.3569738,149.1659865,668.64,17,-0.027010152116417885,0.06073906645178795,0.31157734990119934
1741631456.6681094,-35.3569738,149.1659865,668.64,17,-0.027010152116417885,0.06073906645178795,0.31157734990119934
1741631456.7683926,-35.3569229,149.1660057,669.06,17,-0.0272744782269001,0.06099554896354675,0.3109073340892792
1741631456.8685567,-35.3569229,149.1660057,669.06,17,-0.0272744782269001,0.06099554896354675,0.3109073340892792
1741631456.9687374,-35.3568758,149.1660232,669.44,17,-0.02749798633158207,0.0612039789557457,0.31052127480506897
1741631457.0690367,-35.3568758,149.1660232,669.44,17,-0.02749798633158207,0.0612039789557457,0.31052127480506897
1741631457.1693406,-35.3568758,149.1660232,669.44,17,-0.02749798633158207,0.0612039789557457,0.31052127480506897
1741631457.269644,-35.3568249,149.1660423,669.86,17,-0.02753247693181038,0.06135294958949089,0.3102143406867981
1741631457.3697968,-35.3568249,149.1660423,669.86,17,-0.02753247693181038,0.06135294958949089,0.3102143406867981
1741631457.4700687,-35.3567779,149.1660598,670.24,17,-0.027573635801672935,0.06114281713962555,0.3096381723880768
1741631457.5703754,-35.3567779,149.1660598,670.24,17,-0.027573635801672935,0.06114281713962555,0.3096381723880768
1741631457.670649,-35.3567779,149.1660598,670.24,17,-0.027573635801672935,0.06114281713962555,0.3096381723880768
1741631457.7709363,-35.3567269,149.1660788,670.66,17,-0.028011268004775047,0.06073743849992752,0.3090282082557678
1741631457.8711817,-35.3567269,149.1660788,670.66,17,-0.028011268004775047,0.06073743849992752,0.3090282082557678
1741631457.971354,-35.3566799,149.1660963,671.04,17,-0.028282858431339264,0.06030060350894928,0.3084786534309387
1741631458.0715675,-35.3566799,149.1660963,671.04,17,-0.028282858431339264,0.06030060350894928,0.3084786534309387
1741631458.1716943,-35.3566799,149.1660963,671.04,17,-0.028282858431339264,0.06030060350894928,0.3084786534309387
1741631458.2718315,-35.3566289,149.1661151,671.45,17,-0.028665294870734215,0.05982360988855362,0.3078784942626953
1741631458.3720045,-35.3566289,149.1661151,671.45,17,-0.028665294870734215,0.05982360988855362,0.3078784942626953
1741631458.4721637,-35.3565819,149.1661325,671.83,17,-0.028999365866184235,0.059498902410268784,0.3072570860385895
1741631458.5723135,-35.3565819,149.1661325,671.83,17,-0.028999365866184235,0.059498902410268784,0.3072570860385895
1741631458.6725624,-35.3565819,149.1661325,671.83,17,-0.028999365866184235,0.059498902410268784,0.3072570860385895
1741631458.7727065,-35.3565309,149.1661513,672.23,17,-0.029414093121886253,0.05946506932377815,0.30653679370880127
1741631458.8728344,-35.3565309,149.1661513,672.23,17,-0.029414093121886253,0.05946506932377815,0.30653679370880127
1741631458.9729927,-35.3564839,149.1661687,672.6,17,-0.02981494553387165,0.05955975130200386,0.30584612488746643
1741631459.0731647,-35.3564839,149.1661687,672.6,17,-0.02981494553387165,0.05955975130200386,0.30584612488746643
1741631459.1733272,-35.3564839,149.1661687,672.6,17,-0.02981494553387165,0.05955975130200386,0.30584612488746643
1741631459.2736,-35.3564329,149.1661874,673.01,17,-0.030194342136383057,0.0595126636326313,0.3050144910812378
1741631459.373891,-35.3564329,149.1661874,673.01,17,-0.030194342136383057,0.0595126636326313,0.3050144910812378
1741631459.4740446,-35.3563858,149.1662046,673.38,17,-0.030681343749165535,0.05929683893918991,0.30427461862564087
1741631459.574344,-35.3563858,149.1662046,673.38,17,-0.030681343749165535,0.05929683893918991,0.30427461862564087
1741631459.674644,-35.3563858,149.1662046,673.38,17,-0.030681343749165535,0.05929683893918991,0.30427461862564087
1741631459.7748036,-35.3563347,149.1662232,673.78,17,-0.03141142800450325,0.05912959948182106,0.3034939765930176
1741631459.8749688,-35.3563347,149.1662232,673.78,17,-0.03141142800450325,0.05912959948182106,0.3034939765930176
1741631459.975256,-35.3562876,149.1662403,674.15,17,-0.03205464407801628,0.05920341610908508,0.3026374876499176
1741631460.0754652,-35.3562876,149.1662403,674.15,17,-0.03205464407801628,0.05920341610908508,0.3026374876499176
1741631460.1756582,-35.3562876,149.1662403,674.15,17,-0.03205464407801628,0.05920341610908508,0.3026374876499176
1741631460.2759538,-35.3562365,149.1662588,674.55,17,-0.032850176095962524,0.05937909707427025,0.30164238810539246
1741631460.376257,-35.3562365,149.1662588,674.55,17,-0.032850176095962524,0.05937909707427025,0.30164238810539246
1741631460.4765882,-35.3561893,149.1662759,674.92,17,-0.033732157200574875,0.0595458522439003,0.30072247982025146
1741631460.5767343,-35.3561893,149.1662759,674.92,17,-0.033732157200574875,0.0595458522439003,0.30072247982025146
1741631460.6768744,-35.3561893,149.1662759,674.92,17,-0.033732157200574875,0.0595458522439003,0.30072247982025146
1741631460.777023,-35.3561382,149.1662942,675.32,17,-0.03466576710343361,0.059713754802942276,0.29959800839424133
1741631460.8773184,-35.3561382,149.1662942,675.32,17,-0.03466576710343361,0.059713754802942276,0.29959800839424133
1741631460.9774992,-35.356091,149.1663111,675.7,17,-0.035556189715862274,0.060014065355062485,0.2984713017940521
1741631461.077821,-35.356091,149.1663111,675.7,17,-0.035556189715862274,0.060014065355062485,0.2984713017940521
1741631461.1780148,-35.356091,149.1663111,675.7,17,-0.035556189715862274,0.060014065355062485,0.2984713017940521
1741631461.2781677,-35.3560398,149.1663293,676.1,17,-0.036546751856803894,0.060504429042339325,0.29717007279396057
1741631461.3783205,-35.3560398,149.1663293,676.1,17,-0.036546751856803894,0.060504429042339325,0.29717007279396057
1741631461.478622,-35.3559926,149.166346,676.48,17,-0.0615423209965229,0.062367748469114304,0.2970062494277954
1741631461.5787582,-35.3559926,149.166346,676.48,17,-0.0615423209965229,0.062367748469114304,0.2970062494277954
1741631461.6789002,-35.3559926,149.166346,676.48,17,-0.0615423209965229,0.062367748469114304,0.2970062494277954
1741631461.779156,-35.3559413,149.1663638,676.9,17,-0.19103342294692993,0.07041789591312408,0.2981184124946594
1741631461.8792827,-35.3559413,149.1663638,676.9,17,-0.19103342294692993,0.07041789591312408,0.2981184124946594
1741631461.9794123,-35.3558938,149.1663793,677.32,16,-0.35555025935173035,0.08138851821422577,0.28540733456611633
1741631462.079667,-35.3558938,149.1663793,677.32,16,-0.35555025935173035,0.08138851821422577,0.28540733456611633
1741631462.1800869,-35.3558938,149.1663793,677.32,16,-0.35555025935173035,0.08138851821422577,0.28540733456611633
1741631462.2802439,-35.355842,149.1663941,677.78,14,-0.5544885396957397,0.08786897361278534,0.24883124232292175
1741631462.3803766,-35.355842,149.1663941,677.78,14,-0.5544885396957397,0.08786897361278534,0.24883124232292175
1741631462.4805198,-35.3557936,149.1664049,678.18,11,-0.749765932559967,0.08250918239355087,0.1979355365037918
1741631462.5806572,-35.3557936,149.1664049,678.18,11,-0.749765932559967,0.08250918239355087,0.1979355365037918
1741631462.6807973,-35.3557936,149.1664049,678.18,11,-0.749765932559967,0.08250918239355087,0.1979355365037918
1741631462.7808998,-35.3557404,149.1664127,678.49,6,-0.9341110587120056,0.06521584838628769,0.12087009847164154
1741631462.881006,-35.3557404,149.1664127,678.49,6,-0.9341110587120056,0.06521584838628769,0.12087009847164154
1741631462.9811618,-35.3556903,149.166415,678.64,1,-1.0473564863204956,0.04545237496495247,0.01746031641960144
1741631463.0813286,-35.3556903,149.166415,678.64,1,-1.0473564863204956,0.04545237496495247,0.01746031641960144
1741631463.181493,-35.3556903,149.166415,678.64,1,-1.0473564863204956,0.04545237496495247,0.01746031641960144
1741631463.2817395,-35.3556349,149.1664096,678.68,351,-1.114067792892456,0.03312079980969429,-0.14421549439430237
1741631463.3819895,-35.3556349,149.1664096,678.68,351,-1.114067792892456,0.03312079980969429,-0.14421549439430237
1741631463.4821393,-35.3555836,149.1663942,678.68,340,-1.1428606510162354,0.03931845352053642,-0.3453900218009949
1741631463.5822866,-35.3555836,149.1663942,678.68,340,-1.1428606510162354,0.03931845352053642,-0.3453900218009949
1741631463.6824203,-35.3555836,149.1663942,678.68,340,-1.1428606510162354,0.03931845352053642,-0.3453900218009949
1741631463.7825658,-35.3555306,149.166362,678.76,325,-1.1577569246292114,0.06133541092276573,-0.6006954908370972
1741631463.8827145,-35.3555306,149.166362,678.76,325,-1.1577569246292114,0.06133541092276573,-0.6006954908370972
1741631463.9828413,-35.355488,149.1663173,679.0,311,-1.1636515855789185,0.0880243182182312,-0.8484303951263428
1741631464.0829802,-35.355488,149.1663173,679.0,311,-1.1636515855789185,0.0880243182182312,-0.8484303951263428
1741631464.1831293,-35.355488,149.1663173,679.0,311,-1.1636515855789185,0.0880243182182312,-0.8484303951263428
1741631464.2834005,-35.3554528,149.1662547,679.49,296,-1.1592435836791992,0.11936990171670914,-1.1158928871154785
1741631464.3836641,-35.3554528,149.1662547,679.49,296,-1.1592435836791992,0.11936990171670914,-1.1158928871154785
1741631464.4838054,-35.3554329,149.1661877,680.16,282,-1.1357413530349731,0.14844731986522675,-1.3485438823699951
1741631464.58394,-35.3554329,149.1661877,680.16,282,-1.1357413530349731,0.14844731986522675,-1.3485438823699951
1741631464.6840913,-35.3554329,149.1661877,680.16,282,-1.1357413530349731,0.14844731986522675,-1.3485438823699951
1741631464.7842038,-35.3554256,149.1661105,681.15,269,-1.0739128589630127,0.18103547394275665,-1.5732347965240479
1741631464.884345,-35.3554256,149.1661105,681.15,269,-1.0739128589630127,0.18103547394275665,-1.5732347965240479
1741631464.9845078,-35.355431,149.1660393,682.29,260,-0.9757513403892517,0.20960915088653564,-1.7409311532974243
1741631465.0846674,-35.355431,149.1660393,682.29,260,-0.9757513403892517,0.20960915088653564,-1.7409311532974243
1741631465.1847956,-35.355431,149.1660393,682.29,260,-0.9757513403892517,0.20960915088653564,-1.7409311532974243
1741631465.2849543,-35.3554462,149.1659657,683.74,253,-0.8373481035232544,0.22643312811851501,-1.8656764030456543
1741631465.385108,-35.3554462,149.1659657,683.74,253,-0.8373481035232544,0.22643312811851501,-1.8656764030456543
1741631465.4852679,-35.3554655,149.1659018,685.13,249,-0.6869646310806274,0.21532085537910461,-1.9311975240707397
1741631465.5853734,-35.3554655,149.1659018,685.13,249,-0.6869646310806274,0.21532085537910461,-1.9311975240707397
1741631465.6855218,-35.3554655,149.1659018,685.13,249,-0.6869646310806274,0.21532085537910461,-1.9311975240707397
1741631465.7857761,-35.3554887,149.1658365,686.5,247,-0.5081849694252014,0.17331209778785706,-1.9692347049713135
1741631465.8859248,-35.3554887,149.1658365,686.5,247,-0.5081849694252014,0.17331209778785706,-1.9692347049713135
1741631465.98608,-35.3555107,149.165779,687.48,245,-0.33537450432777405,0.11619949340820312,-1.9914852380752563
1741631466.0862212,-35.3555107,149.165779,687.48,245,-0.33537450432777405,0.11619949340820312,-1.9914852380752563
1741631466.1864977,-35.3555107,149.165779,687.48,245,-0.33537450432777405,0.11619949340820312,-1.9914852380752563
1741631466.2866824,-35.3555343,149.1657188,688.15,244,-0.14114916324615479,0.04270443692803383,-2.0102181434631348
1741631466.3868515,-35.3555343,149.1657188,688.15,244,-0.14114916324615479,0.04270443692803383,-2.0102181434631348
1741631466.4870472,-35.3555558,149.1656649,688.36,244,0.03165494278073311,-0.02693203091621399,-2.024388074874878
1741631466.58721,-35.3555558,149.1656649,688.36,244,0.03165494278073311,-0.02693203091621399,-2.024388074874878
1741631466.6873846,-35.3555785,149.1656077,688.17,244,0.17917628586292267,-0.08946274220943451,-2.03025221824646
1741631466.78751,-35.3555785,149.1656077,688.17,243,0.17917628586292267,-0.08946274220943451,-2.03025221824646
1741631466.8877785,-35.3555785,149.1656077,688.17,243,0.17917628586292267,-0.08946274220943451,-2.03025221824646
1741631466.9880338,-35.3555989,149.1655557,687.67,244,0.2695598304271698,-0.12859296798706055,-2.0209431648254395
1741631467.0881922,-35.3555989,149.1655557,687.67,244,0.2695598304271698,-0.12859296798706055,-2.0209431648254395
1741631467.1883595,-35.3555989,149.1655557,687.67,244,0.2695598304271698,-0.12859296798706055,-2.0209431648254395
1741631467.2885144,-35.35562,149.1654995,686.91,245,0.3230955898761749,-0.1462336927652359,-1.9939600229263306
1741631467.3887544,-35.35562,149.1654995,686.91,245,0.3230955898761749,-0.1462336927652359,-1.9939600229263306
1741631467.4890056,-35.3556382,149.1654468,686.13,247,0.33871346712112427,-0.13831813633441925,-1.9560004472732544
1741631467.589231,-35.3556382,149.1654468,686.13,247,0.33871346712112427,-0.13831813633441925,-1.9560004472732544
1741631467.6894555,-35.3556563,149.1653881,685.35,250,0.3277832269668579,-0.10748797655105591,-1.9064193964004517
1741631467.7896135,-35.3556563,149.1653881,685.35,250,0.3277832269668579,-0.10748797655105591,-1.9064193964004517
1741631467.8897758,-35.3556563,149.1653881,685.35,250,0.3277832269668579,-0.10748797655105591,-1.9064193964004517
1741631467.9899452,-35.3556712,149.1653323,684.79,253,0.2995070815086365,-0.06775452196598053,-1.8598675727844238
1741631468.090106,-35.3556712,149.1653323,684.79,253,0.2995070815086365,-0.06775452196598053,-1.8598675727844238
1741631468.190367,-35.3556853,149.1652703,684.43,255,0.2552998960018158,-0.026519455015659332,-1.8155847787857056
1741631468.2905023,-35.3556853,149.1652703,684.43,255,0.2552998960018158,-0.026519455015659332,-1.8155847787857056
1741631468.3906648,-35.3556853,149.1652703,684.43,255,0.2552998960018158,-0.026519455015659332,-1.8155847787857056
1741631468.490811,-35.3556966,149.1652121,684.3,257,0.20635327696800232,-0.0010719368001446128,-1.7836990356445312
1741631468.5909605,-35.3556966,149.1652121,684.3,257,0.20635327696800232,-0.0010719368001446128,-1.7836990356445312
1741631468.691099,-35.3557074,149.1651485,684.32,259,0.15030738711357117,0.007637978997081518,-1.7588725090026855
1741631468.7913284,-35.3557074,149.1651485,684.32,259,0.15030738711357117,0.007637978997081518,-1.7588725090026855
1741631468.8914707,-35.3557074,149.1651485,684.32,259,0.15030738711357117,0.007637978997081518,-1.7588725090026855
1741631468.9915998,-35.3557165,149.1650896,684.37,260,0.1012689471244812,0.0008042200352065265,-1.7429779767990112
1741631469.091768,-35.3557165,149.1650896,684.37,260,0.1012689471244812,0.0008042200352065265,-1.7429779767990112
1741631469.1919057,-35.3557257,149.1650259,684.38,260,0.05596347525715828,-0.014562015421688557,-1.7311800718307495
1741631469.2921243,-35.3557257,149.1650259,684.38,260,0.05596347525715828,-0.014562015421688557,-1.7311800718307495
1741631469.3924599,-35.3557257,149.1650259,684.38,260,0.05596347525715828,-0.014562015421688557,-1.7311800718307495
1741631469.4925783,-35.3557338,149.1649671,684.32,261,0.023353636264801025,-0.027530092746019363,-1.7240673303604126
1741631469.5928154,-35.3557338,149.1649671,684.32,261,0.023353636264801025,-0.027530092746019363,-1.7240673303604126
1741631469.6929529,-35.3557424,149.1649033,684.19,261,-0.002269333228468895,-0.03366730734705925,-1.7197195291519165
1741631469.7930713,-35.3557424,149.1649033,684.19,261,-0.002269333228468895,-0.03366730734705925,-1.7197195291519165
1741631469.8931901,-35.3557424,149.1649033,684.19,261,-0.002269333228468895,-0.03366730734705925,-1.7197195291519165
1741631469.9934418,-35.3557501,149.1648443,684.04,261,-0.018374906852841377,-0.030592897906899452,-1.718147873878479
1741631470.0936801,-35.3557501,149.1648443,684.04,261,-0.018374906852841377,-0.030592897906899452,-1.718147873878479
1741631470.193897,-35.3557585,149.1647801,683.9,261,-0.029646892100572586,-0.02071676403284073,-1.718419075012207
1741631470.29408,-35.3557585,149.1647801,683.9,261,-0.029646892100572586,-0.02071676403284073,-1.718419075012207
1741631470.3942878,-35.3557585,149.1647801,683.9,261,-0.029646892100572586,-0.02071676403284073,-1.718419075012207
1741631470.4945588,-35.3557663,149.1647207,683.83,261,-0.03520174324512482,-0.009978383779525757,-1.719701886177063
1741631470.5947633,-35.3557663,149.1647207,683.83,261,-0.03520174324512482,-0.009978383779525757,-1.719701886177063
1741631470.694932,-35.3557748,149.1646562,683.82,261,-0.03675464913249016,-0.0015101372264325619,-1.7213598489761353
1741631470.7951498,-35.3557748,149.1646562,683.82,261,-0.03675464913249016,-0.0015101372264325619,-1.7213598489761353
1741631470.895417,-35.3557748,149.1646562,683.82,261,-0.03675464913249016,-0.0015101372264325619,-1.7213598489761353
1741631470.995613,-35.3557828,149.1645966,683.85,261,-0.03489871695637703,0.0012761226389557123,-1.722696304321289
1741631471.0958333,-35.3557828,149.1645966,683.85,261,-0.03489871695637703,0.0012761226389557123,-1.722696304321289
1741631471.1960406,-35.3557914,149.1645321,683.9,261,-0.030507300049066544,-0.0003869590873364359,-1.723768949508667
1741631471.296178,-35.3557914,149.1645321,683.9,261,-0.030507300049066544,-0.0003869590873364359,-1.723768949508667
1741631471.3964522,-35.3557914,149.1645321,683.9,261,-0.030507300049066544,-0.0003869590873364359,-1.723768949508667
1741631471.4967594,-35.3557995,149.1644726,683.93,261,-0.025557786226272583,-0.004005457740277052,-1.7243176698684692
1741631471.5970628,-35.3557995,149.1644726,683.93,261,-0.025557786226272583,-0.004005457740277052,-1.7243176698684692
1741631471.697176,-35.3558082,149.1644082,683.94,261,-0.019993597641587257,-0.007623959798365831,-1.7243913412094116
1741631471.7973137,-35.3558082,149.1644082,683.94,261,-0.019993597641587257,-0.007623959798365831,-1.7243913412094116
1741631471.8974485,-35.3558082,149.1644082,683.94,261,-0.019993597641587257,-0.007623959798365831,-1.7243913412094116
1741631471.997567,-35.3558162,149.1643487,683.94,261,-0.015241873450577259,-0.009083891287446022,-1.7240005731582642
1741631472.0977633,-35.3558162,149.1643487,683.94,261,-0.015241873450577259,-0.009083891287446022,-1.7240005731582642
1741631472.198012,-35.3558249,149.1642842,683.93,261,-0.010881379246711731,-0.0081362659111619,-1.7232022285461426
1741631472.2981498,-35.3558249,149.1642842,683.93,261,-0.010881379246711731,-0.0081362659111619,-1.7232022285461426
1741631472.3983207,-35.3558249,149.1642842,683.93,261,-0.010881379246711731,-0.0081362659111619,-1.7232022285461426
1741631472.498553,-35.3558329,149.1642246,683.94,261,-0.007707596756517887,-0.005627485923469067,-1.722048282623291
1741631472.5987616,-35.3558329,149.1642246,683.94,261,-0.007707596756517887,-0.005627485923469067,-1.722048282623291
1741631472.6989465,-35.3558414,149.16416,683.96,261,-0.005172822158783674,-0.0028152738232165575,-1.720452070236206
1741631472.7991607,-35.3558414,149.16416,683.96,261,-0.005172822158783674,-0.0028152738232165575,-1.720452070236206
1741631472.8993933,-35.3558414,149.16416,683.96,261,-0.005172822158783674,-0.0028152738232165575,-1.720452070236206
1741631472.9996052,-35.3558493,149.1641003,683.99,261,-0.0035797255113720894,-0.0013796316925436258,-1.718717336654663
1741631473.0998213,-35.3558493,149.1641003,683.99,261,-0.0035797255113720894,-0.0013796316925436258,-1.718717336654663
1741631473.2000477,-35.3558577,149.1640357,684.02,261,-0.0025832580868154764,-0.0013921097852289677,-1.7166744470596313
1741631473.30026,-35.3558577,149.1640357,684.02,261,-0.0025832580868154764,-0.0013921097852289677,-1.7166744470596313
1741631473.400533,-35.3558577,149.1640357,684.02,261,-0.0025832580868154764,-0.0013921097852289677,-1.7166744470596313
1741631473.5007358,-35.3558653,149.163976,684.05,261,-0.002255119848996401,-0.0024400444235652685,-1.7146000862121582
1741631473.600991,-35.3558653,149.163976,684.05,261,-0.002255119848996401,-0.0024400444235652685,-1.7146000862121582
1741631473.7012355,-35.3558735,149.1639113,684.08,261,-0.002566774608567357,-0.003946647047996521,-1.712449312210083
1741631473.801439,-35.3558735,149.1639113,684.08,261,-0.002566774608567357,-0.003946647047996521,-1.712449312210083
1741631473.9016566,-35.3558735,149.1639113,684.08,261,-0.002566774608567357,-0.003946647047996521,-1.712449312210083
1741631474.0017972,-35.3558809,149.1638516,684.09,262,-0.0032056954223662615,-0.00495968759059906,-1.7105228900909424
1741631474.1019855,-35.3558809,149.1638516,684.09,262,-0.0032056954223662615,-0.00495968759059906,-1.7105228900909424
1741631474.2021732,-35.3558889,149.1637869,684.11,262,-0.004384464584290981,-0.005263689439743757,-1.7083600759506226
1741631474.3024113,-35.3558889,149.1637869,684.11,262,-0.004384464584290981,-0.005263689439743757,-1.7083600759506226
1741631474.4026227,-35.3558889,149.1637869,684.11,262,-0.004384464584290981,-0.005263689439743757,-1.7083600759506226
1741631474.5028403,-35.3558962,149.1637272,684.12,262,-0.005724810995161533,-0.004859925713390112,-1.7064517736434937
1741631474.6030653,-35.3558962,149.1637272,684.12,262,-0.005724810995161533,-0.004859925713390112,-1.7064517736434937
1741631474.7032497,-35.355904,149.1636624,684.13,262,-0.007245915476232767,-0.004057137295603752,-1.7046126127243042
1741631474.8035042,-35.355904,149.1636624,684.13,262,-0.007245915476232767,-0.004057137295603752,-1.7046126127243042
1741631474.9037125,-35.355904,149.1636624,684.13,262,-0.007245915476232767,-0.004057137295603752,-1.7046126127243042
1741631475.0039256,-35.3559111,149.1636026,684.15,262,-0.00866709928959608,-0.0034140136558562517,-1.7030514478683472
1741631475.1041307,-35.3559111,149.1636026,684.15,262,-0.00866709928959608,-0.0034140136558562517,-1.7030514478683472
1741631475.2042944,-35.3559187,149.1635378,684.16,262,-0.010178164578974247,-0.00304369512014091,-1.7014669179916382
1741631475.3044505,-35.3559187,149.1635378,684.16,262,-0.010178164578974247,-0.00304369512014091,-1.7014669179916382
1741631475.4045842,-35.3559187,149.1635378,684.16,262,-0.010178164578974247,-0.00304369512014091,-1.7014669179916382
1741631475.5047429,-35.3559256,149.163478,684.18,262,-0.011565874330699444,-0.003063148120418191,-1.7001278400421143
1741631475.6049175,-35.3559256,149.163478,684.18,262,-0.011565874330699444,-0.003063148120418191,-1.7001278400421143
1741631475.7050664,-35.3559331,149.1634133,684.2,262,-0.013098898343741894,-0.003508704947307706,-1.6988154649734497
1741631475.8052094,-35.3559331,149.1634133,684.2,262,-0.013098898343741894,-0.003508704947307706,-1.6988154649734497
1741631475.9054601,-35.3559331,149.1634133,684.2,262,-0.013098898343741894,-0.003508704947307706,-1.6988154649734497
1741631476.0055745,-35.35594,149.1633535,684.22,262,-0.014535637572407722,-0.004166445229202509,-1.697737693786621
1741631476.1057026,-35.35594,149.1633535,684.22,262,-0.014535637572407722,-0.004166445229202509,-1.697737693786621
1741631476.2058387,-35.3559473,149.1632888,684.23,262,-0.0157609935849905,-0.004929393529891968,-1.6968261003494263
1741631476.3060107,-35.3559473,149.1632888,684.23,262,-0.0157609935849905,-0.004929393529891968,-1.6968261003494263
1741631476.406214,-35.3559473,149.1632888,684.23,262,-0.0157609935849905,-0.004929393529891968,-1.6968261003494263
1741631476.5063615,-35.3559541,149.163229,684.24,262,-0.016673579812049866,-0.00540112005546689,-1.6961181163787842
1741631476.6065097,-35.3559541,149.163229,684.24,262,-0.016673579812049866,-0.00540112005546689,-1.6961181163787842
1741631476.7066815,-35.3559614,149.1631642,684.25,262,-0.017578553408384323,-0.0052740927785634995,-1.6953916549682617
1741631476.8068335,-35.3559614,149.1631642,684.25,262,-0.017578553408384323,-0.0052740927785634995,-1.6953916549682617
1741631476.9069996,-35.3559614,149.1631642,684.25,262,-0.017578553408384323,-0.0052740927785634995,-1.6953916549682617
1741631477.007189,-35.3559681,149.1631044,684.27,262,-0.018361061811447144,-0.004780394025146961,-1.694791555404663
1741631477.107427,-35.3559681,149.1631044,684.27,262,-0.018361061811447144,-0.004780394025146961,-1.694791555404663
1741631477.2076256,-35.3559753,149.1630396,684.28,262,-0.019157975912094116,-0.004426454659551382,-1.6942358016967773
1741631477.3077667,-35.3559753,149.1630396,684.28,262,-0.019157975912094116,-0.004426454659551382,-1.6942358016967773
1741631477.4079742,-35.3559753,149.1630396,684.28,262,-0.019157975912094116,-0.004426454659551382,-1.6942358016967773
1741631477.5081332,-35.3559819,149.1629798,684.3,262,-0.019902536645531654,-0.004531888756901026,-1.6937659978866577
1741631477.6082919,-35.3559819,149.1629798,684.3,262,-0.019902536645531654,-0.004531888756901026,-1.6937659978866577
1741631477.708471,-35.3559891,149.162915,684.31,262,-0.02070593275129795,-0.004904801957309246,-1.693315029144287
1741631477.8086367,-35.3559891,149.162915,684.31,262,-0.02070593275129795,-0.004904801957309246,-1.693315029144287
1741631477.908767,-35.3559891,149.162915,684.31,262,-0.02070593275129795,-0.004904801957309246,-1.693315029144287
1741631478.0089185,-35.3559957,149.1628552,684.31,263,-0.021434146910905838,-0.00532522052526474,-1.6929718255996704
1741631478.1090426,-35.3559957,149.1628552,684.31,263,-0.021434146910905838,-0.00532522052526474,-1.6929718255996704
1741631478.209151,-35.3560028,149.1627905,684.32,263,-0.02221543714404106,-0.0056861150078475475,-1.6926822662353516
1741631478.3093622,-35.3560028,149.1627905,684.32,263,-0.02221543714404106,-0.0056861150078475475,-1.6926822662353516
1741631478.4095762,-35.3560028,149.1627905,684.32,263,-0.02221543714404106,-0.0056861150078475475,-1.6926822662353516
1741631478.509778,-35.3560094,149.1627307,684.32,263,-0.02292167767882347,-0.005711340345442295,-1.6924872398376465
1741631478.6100218,-35.3560094,149.1627307,684.32,263,-0.02292167767882347,-0.005711340345442295,-1.6924872398376465
1741631478.710189,-35.3560165,149.1626659,684.33,263,-0.02365952916443348,-0.005397556349635124,-1.6923677921295166
1741631478.8104422,-35.3560165,149.1626659,684.33,263,-0.02365952916443348,-0.005397556349635124,-1.6923677921295166
1741631478.9107103,-35.3560165,149.1626659,684.33,263,-0.02365952916443348,-0.005397556349635124,-1.6923677921295166
1741631479.010877,-35.356023,149.1626061,684.33,263,-0.023999199271202087,-0.005036706570535898,-1.6922801733016968
1741631479.1111722,-35.356023,149.1626061,684.33,263,-0.023999199271202087,-0.005036706570535898,-1.6922801733016968
1741631479.2113245,-35.3560301,149.1625413,684.34,263,-0.02400347962975502,-0.004918001592159271,-1.6921639442443848
1741631479.311597,-35.3560301,149.1625413,684.34,263,-0.02400347962975502,-0.004918001592159271,-1.6921639442443848
1741631479.411847,-35.3560301,149.1625413,684.34,263,-0.02400347962975502,-0.004918001592159271,-1.6921639442443848
1741631479.512038,-35.3560367,149.1624815,684.36,263,-0.024147212505340576,-0.005099030211567879,-1.6922200918197632
1741631479.612315,-35.3560367,149.1624815,684.36,263,-0.024147212505340576,-0.005099030211567879,-1.6922200918197632
1741631479.7125597,-35.3560438,149.1624168,684.36,263,-0.024454912170767784,-0.00560087850317359,-1.692258596420288
1741631479.8127215,-35.3560438,149.1624168,684.36,263,-0.024454912170767784,-0.00560087850317359,-1.692258596420288
1741631479.9130251,-35.3560438,149.1624168,684.36,263,-0.024454912170767784,-0.00560087850317359,-1.692258596420288
1741631480.0132115,-35.3560503,149.162357,684.37,263,-0.024537116289138794,-0.006122550927102566,-1.6922540664672852
1741631480.1133506,-35.3560503,149.162357,684.37,263,-0.024537116289138794,-0.006122550927102566,-1.6922540664672852
1741631480.2134893,-35.3560574,149.1622922,684.37,263,-0.02460600435733795,-0.006407245062291622,-1.6922905445098877
1741631480.3136306,-35.3560574,149.1622922,684.37,263,-0.02460600435733795,-0.006407245062291622,-1.6922905445098877
1741631480.4138057,-35.3560574,149.1622922,684.37,263,-0.02460600435733795,-0.006407245062291622,-1.6922905445098877
1741631480.5139344,-35.3560639,149.1622325,684.38,263,-0.024730706587433815,-0.006293636281043291,-1.6923528909683228
1741631480.6141696,-35.3560639,149.1622325,684.38,263,-0.024730706587433815,-0.006293636281043291,-1.6923528909683228
1741631480.714312,-35.356071,149.1621677,684.38,263,-0.02490641176700592,-0.006035448517650366,-1.6924583911895752
1741631480.814572,-35.356071,149.1621677,684.38,263,-0.02490641176700592,-0.006035448517650366,-1.6924583911895752
1741631480.91485,-35.356071,149.1621677,684.38,263,-0.02490641176700592,-0.006035448517650366,-1.6924583911895752
1741631481.015018,-35.3560775,149.162108,684.39,263,-0.025110801681876183,-0.005786039400845766,-1.692514181137085
1741631481.1153014,-35.3560775,149.162108,684.39,263,-0.025110801681876183,-0.005786039400845766,-1.692514181137085
1741631481.2155128,-35.3560846,149.1620432,684.4,263,-0.025136437267065048,-0.0057569509372115135,-1.692628264427185
1741631481.315714,-35.3560846,149.1620432,684.4,263,-0.025136437267065048,-0.0057569509372115135,-1.692628264427185
1741631481.4159627,-35.3560846,149.1620432,684.4,263,-0.025136437267065048,-0.0057569509372115135,-1.692628264427185
1741631481.5162508,-35.3560912,149.1619835,684.41,263,-0.02505868673324585,-0.0059343320317566395,-1.6926944255828857
1741631481.6165857,-35.3560912,149.1619835,684.41,263,-0.02505868673324585,-0.0059343320317566395,-1.6926944255828857
1741631481.7167833,-35.3560982,149.1619188,684.42,263,-0.025205301120877266,-0.006220878101885319,-1.6927918195724487
1741631481.8170898,-35.3560982,149.1619188,684.42,263,-0.025205301120877266,-0.006220878101885319,-1.6927918195724487
1741631481.9173877,-35.3560982,149.1619188,684.42,263,-0.025205301120877266,-0.006220878101885319,-1.6927918195724487
1741631482.01771,-35.3561048,149.1618591,684.43,263,-0.02530863508582115,-0.006502293981611729,-1.6927998065948486
1741631482.1179469,-35.3561048,149.1618591,684.43,263,-0.02530863508582115,-0.006502293981611729,-1.6927998065948486
1741631482.218142,-35.3561119,149.1617944,684.43,263,-0.025217045098543167,-0.0065933046862483025,-1.6929221153259277
1741631482.318388,-35.3561119,149.1617944,684.43,263,-0.025217045098543167,-0.0065933046862483025,-1.6929221153259277
1741631482.4185808,-35.3561119,149.1617944,684.43,263,-0.025217045098543167,-0.0065933046862483025,-1.6929221153259277
1741631482.5187254,-35.3561184,149.1617347,684.43,263,-0.02533801645040512,-0.0066086240112781525,-1.6930636167526245
1741631482.6189182,-35.3561184,149.1617347,684.43,263,-0.02533801645040512,-0.0066086240112781525,-1.6930636167526245
1741631482.719107,-35.3561255,149.16167,684.43,262,-0.02543707564473152,-0.006629993673413992,-1.693171739578247
1741631482.8193293,-35.3561255,149.16167,684.43,262,-0.02543707564473152,-0.006629993673413992,-1.693171739578247
1741631482.9195766,-35.3561255,149.16167,684.43,262,-0.02543707564473152,-0.006629993673413992,-1.693171739578247
1741631483.019726,-35.3561321,149.1616103,684.44,262,-0.025522762909531593,-0.006772291846573353,-1.6933025121688843
1741631483.1200297,-35.3561321,149.1616103,684.44,262,-0.025522762909531593,-0.006772291846573353,-1.6933025121688843
1741631483.2202036,-35.3561392,149.1615457,684.44,262,-0.025447828695178032,-0.00681706890463829,-1.6933294534683228
1741631483.3204749,-35.3561392,149.1615457,684.44,262,-0.025447828695178032,-0.00681706890463829,-1.6933294534683228
1741631483.420794,-35.3561392,149.1615457,684.44,262,-0.025447828695178032,-0.00681706890463829,-1.6933294534683228
1741631483.5209742,-35.3561457,149.161486,684.43,262,-0.025374891236424446,-0.006824204232543707,-1.69339120388031
1741631483.6211212,-35.3561457,149.161486,684.43,262,-0.025374891236424446,-0.006824204232543707,-1.69339120388031
1741631483.7213032,-35.3561528,149.1614214,684.43,262,-0.025462277233600616,-0.006826518103480339,-1.6936261653900146
1741631483.8214405,-35.3561528,149.1614214,684.43,262,-0.025462277233600616,-0.006826518103480339,-1.6936261653900146
1741631483.9215722,-35.3561528,149.1614214,684.43,262,-0.025462277233600616,-0.006826518103480339,-1.6936261653900146
1741631484.0217047,-35.3561594,149.1613618,684.43,262,-0.025576310232281685,-0.006812714505940676,-1.6937544345855713
1741631484.1218543,-35.3561594,149.1613618,684.43,262,-0.025576310232281685,-0.006812714505940676,-1.6937544345855713
1741631484.221982,-35.3561665,149.1612971,684.43,262,-0.02547357603907585,-0.006915845442563295,-1.6938999891281128
1741631484.322069,-35.3561665,149.1612971,684.43,262,-0.02547357603907585,-0.006915845442563295,-1.6938999891281128
1741631484.4221647,-35.3561665,149.1612971,684.43,262,-0.02547357603907585,-0.006915845442563295,-1.6938999891281128
1741631484.5222778,-35.3561731,149.1612375,684.44,262,-0.025397924706339836,-0.006929344497621059,-1.6940906047821045
1741631484.622535,-35.3561731,149.1612375,684.44,262,-0.025397924706339836,-0.006929344497621059,-1.6940906047821045
1741631484.7228136,-35.3561802,149.1611729,684.44,262,-0.02533634938299656,-0.00692287040874362,-1.6942729949951172
1741631484.8230457,-35.3561802,149.1611729,684.44,262,-0.02533634938299656,-0.00692287040874362,-1.6942729949951172
1741631484.9232993,-35.3561802,149.1611729,684.44,262,-0.02533634938299656,-0.00692287040874362,-1.6942729949951172
1741631485.0234702,-35.3561868,149.1611133,684.45,262,-0.025290075689554214,-0.006920656189322472,-1.6943918466567993
1741631485.1237574,-35.3561868,149.1611133,684.45,262,-0.025290075689554214,-0.006920656189322472,-1.6943918466567993
1741631485.2238767,-35.3561939,149.1610487,684.45,262,-0.02531968243420124,-0.0069863926619291306,-1.6945159435272217
1741631485.3240757,-35.3561939,149.1610487,684.45,262,-0.02531968243420124,-0.0069863926619291306,-1.6945159435272217
1741631485.4241846,-35.3561939,149.1610487,684.45,262,-0.02531968243420124,-0.0069863926619291306,-1.6945159435272217
1741631485.5244331,-35.3562005,149.1609891,684.44,262,-0.02526177652180195,-0.007323229685425758,-1.6945250034332275
1741631485.6247113,-35.3562005,149.1609891,684.44,262,-0.02526177652180195,-0.007323229685425758,-1.6945250034332275
1741631485.7248948,-35.3562076,149.1609245,684.43,262,-0.02520045079290867,-0.007835514843463898,-1.69460928440094
1741631485.8252096,-35.3562076,149.1609245,684.43,262,-0.02520045079290867,-0.007835514843463898,-1.69460928440094
1741631485.9254136,-35.3562142,149.1608649,684.43,262,-0.025285085663199425,-0.008118152618408203,-1.6947952508926392
1741631486.0256257,-35.3562142,149.1608649,684.43,262,-0.025285085663199425,-0.008118152618408203,-1.6947952508926392
1741631486.1258447,-35.3562142,149.1608649,684.43,262,-0.025285085663199425,-0.008118152618408203,-1.6947952508926392
1741631486.225999,-35.3562213,149.1608003,684.42,262,-0.025409076362848282,-0.008055677637457848,-1.6948857307434082
1741631486.3262093,-35.3562213,149.1608003,684.42,262,-0.025409076362848282,-0.008055677637457848,-1.6948857307434082
1741631486.4263058,-35.3562213,149.1608003,684.42,262,-0.025350471958518028,-0.007703803945332766,-1.6949723958969116
1741631486.5265722,-35.3562279,149.1607407,684.42,262,-0.025350471958518028,-0.007703803945332766,-1.6949723958969116
1741631486.626726,-35.3562279,149.1607407,684.42,262,-0.025350471958518028,-0.007703803945332766,-1.6949723958969116
1741631486.7269707,-35.356235,149.1606761,684.42,262,-0.02525167725980282,-0.00747439730912447,-1.6950101852416992
1741631486.8272789,-35.356235,149.1606761,684.42,262,-0.02525167725980282,-0.00747439730912447,-1.6950101852416992
1741631486.9274862,-35.3562416,149.1606165,684.42,262,-0.025197848677635193,-0.007586564868688583,-1.6951909065246582
1741631487.0275955,-35.3562416,149.1606165,684.42,262,-0.025197848677635193,-0.007586564868688583,-1.6951909065246582
1741631487.127778,-35.3562416,149.1606165,684.42,262,-0.025197848677635193,-0.007586564868688583,-1.6951909065246582
1741631487.22793,-35.3562488,149.1605519,684.42,262,-0.025201639160513878,-0.007841559126973152,-1.6954010725021362
1741631487.3282242,-35.3562488,149.1605519,684.42,262,-0.025201639160513878,-0.007841559126973152,-1.6954010725021362
1741631487.4283564,-35.3562554,149.1604922,684.42,262,-0.02512216381728649,-0.007853005081415176,-1.6953744888305664
1741631487.5285854,-35.3562554,149.1604922,684.42,262,-0.02512216381728649,-0.007853005081415176,-1.6953744888305664
1741631487.6288028,-35.3562554,149.1604922,684.42,262,-0.02512216381728649,-0.007853005081415176,-1.6953744888305664
1741631487.7289748,-35.3562625,149.1604276,684.41,262,-0.025152262300252914,-0.0077387322671711445,-1.6954010725021362
1741631487.8291407,-35.3562625,149.1604276,684.41,262,-0.025152262300252914,-0.0077387322671711445,-1.6954010725021362
1741631487.9292994,-35.3562691,149.1603679,684.41,262,-0.025238540023565292,-0.007617243565618992,-1.6955815553665161
1741631488.0294528,-35.3562691,149.1603679,684.41,262,-0.025238540023565292,-0.007617243565618992,-1.6955815553665161
1741631488.1297529,-35.3562691,149.1603679,684.41,262,-0.025238540023565292,-0.007617243565618992,-1.6955815553665161
1741631488.2299132,-35.3562763,149.1603032,684.4,262,-0.02524322085082531,-0.00743118766695261,-1.6958245038986206
1741631488.330164,-35.3562763,149.1603032,684.4,262,-0.02524322085082531,-0.00743118766695261,-1.6958245038986206
1741631488.4303055,-35.3562829,149.1602435,684.39,262,-0.025242870673537254,-0.007362722419202328,-1.6959575414657593
1741631488.5305183,-35.3562829,149.1602435,684.39,262,-0.025242870673537254,-0.007362722419202328,-1.6959575414657593
1741631488.63075,-35.3562829,149.1602435,684.39,262,-0.025242870673537254,-0.007362722419202328,-1.6959575414657593
1741631488.7310078,-35.3562901,149.1601789,684.39,262,-0.025231894105672836,-0.007496226578950882,-1.6959112882614136
1741631488.8312998,-35.3562901,149.1601789,684.39,262,-0.025231894105672836,-0.007496226578950882,-1.6959112882614136
1741631488.9316192,-35.3562967,149.1601192,684.38,262,-0.025158345699310303,-0.007634940557181835,-1.6958452463150024
1741631489.0317512,-35.3562967,149.1601192,684.38,262,-0.025158345699310303,-0.007634940557181835,-1.6958452463150024
1741631489.1320064,-35.3562967,149.1601192,684.38,262,-0.025158345699310303,-0.007634940557181835,-1.6958452463150024
1741631489.2321615,-35.3563039,149.1600545,684.39,262,-0.02504035457968712,-0.007524256128817797,-1.695888876914978
1741631489.332314,-35.3563039,149.1600545,684.39,262,-0.02504035457968712,-0.007524256128817797,-1.695888876914978
1741631489.4324377,-35.3563105,149.1599947,684.38,262,-0.025135435163974762,-0.007261018268764019,-1.6960883140563965
1741631489.5326416,-35.3563105,149.1599947,684.38,262,-0.025135435163974762,-0.007261018268764019,-1.6960883140563965
1741631489.6328664,-35.3563105,149.1599947,684.38,262,-0.025135435163974762,-0.007261018268764019,-1.6960883140563965
1741631489.7330585,-35.3563176,149.15993,684.38,262,-0.025152860209345818,-0.006724847014993429,-1.6962047815322876
1741631489.8333046,-35.3563176,149.15993,684.38,262,-0.025152860209345818,-0.006724847014993429,-1.6962047815322876
1741631489.933448,-35.3563243,149.1598703,684.38,262,-0.025037139654159546,-0.006334520410746336,-1.6962343454360962
1741631490.0335999,-35.3563243,149.1598703,684.38,262,-0.025037139654159546,-0.006334520410746336,-1.6962343454360962
1741631490.133818,-35.3563243,149.1598703,684.38,262,-0.025037139654159546,-0.006334520410746336,-1.6962343454360962
1741631490.2339993,-35.3563314,149.1598056,684.39,262,-0.02508997730910778,-0.0062641482800245285,-1.6962946653366089
1741631490.334235,-35.3563314,149.1598056,684.39,262,-0.02508997730910778,-0.0062641482800245285,-1.6962946653366089
1741631490.4343653,-35.356338,149.1597459,684.4,262,-0.02519376575946808,-0.006509867031127214,-1.6963332891464233
1741631490.534508,-35.356338,149.1597459,684.4,262,-0.02519376575946808,-0.006509867031127214,-1.6963332891464233
1741631490.6348457,-35.356338,149.1597459,684.4,262,-0.02519376575946808,-0.006509867031127214,-1.6963332891464233
1741631490.7351644,-35.3563452,149.1596812,684.41,262,-0.02514481730759144,-0.0069040898233652115,-1.6962857246398926
1741631490.8354769,-35.3563452,149.1596812,684.41,262,-0.02514481730759144,-0.0069040898233652115,-1.6962857246398926
1741631490.9356635,-35.3563518,149.1596215,684.42,262,-0.025056662037968636,-0.007256960496306419,-1.6964390277862549
1741631491.0357928,-35.3563518,149.1596215,684.42,262,-0.025056662037968636,-0.007256960496306419,-1.6964390277862549
1741631491.1359475,-35.3563518,149.1596215,684.42,262,-0.025056662037968636,-0.007256960496306419,-1.6964390277862549
1741631491.2361367,-35.356359,149.1595568,684.42,262,-0.02517538331449032,-0.007571719586849213,-1.696606159210205
1741631491.336385,-35.356359,149.1595568,684.42,262,-0.02517538331449032,-0.007571719586849213,-1.696606159210205
1741631491.4365146,-35.3563656,149.1594971,684.41,262,-0.02518792450428009,-0.007803341373801231,-1.696588158607483
1741631491.5368168,-35.3563656,149.1594971,684.41,262,-0.02518792450428009,-0.007803341373801231,-1.696588158607483
1741631491.637128,-35.3563656,149.1594971,684.41,262,-0.02518792450428009,-0.007803341373801231,-1.696588158607483
1741631491.7374368,-35.3563728,149.1594324,684.41,262,-0.02517024055123329,-0.007773431017994881,-1.696678638458252
1741631491.8377573,-35.3563728,149.1594324,684.41,262,-0.02517024055123329,-0.007773431017994881,-1.696678638458252
1741631491.937901,-35.3563794,149.1593727,684.41,262,-0.0251091867685318,-0.00755266472697258,-1.6968648433685303
1741631492.0380769,-35.3563794,149.1593727,684.41,262,-0.0251091867685318,-0.00755266472697258,-1.6968648433685303
1741631492.1383636,-35.3563794,149.1593727,684.41,262,-0.0251091867685318,-0.00755266472697258,-1.6968648433685303
1741631492.2386224,-35.3563865,149.159308,684.41,262,-0.025175541639328003,-0.007071087136864662,-1.696989893913269
1741631492.3387616,-35.3563865,149.159308,684.41,262,-0.025175541639328003,-0.007071087136864662,-1.696989893913269
1741631492.4388614,-35.3563931,149.1592483,684.41,262,-0.02511681616306305,-0.0068407924845814705,-1.6971060037612915
1741631492.5390136,-35.3563931,149.1592483,684.41,262,-0.02511681616306305,-0.0068407924845814705,-1.6971060037612915
1741631492.6392791,-35.3563931,149.1592483,684.41,262,-0.02511681616306305,-0.0068407924845814705,-1.6971060037612915
1741631492.7394378,-35.3564003,149.1591836,684.41,262,-0.025171875953674316,-0.006980970501899719,-1.6971890926361084
1741631492.839642,-35.3564003,149.1591836,684.41,262,-0.025171875953674316,-0.006980970501899719,-1.6971890926361084
1741631492.9397902,-35.3564069,149.1591239,684.41,262,-0.025176649913191795,-0.007260594982653856,-1.6972827911376953
1741631493.039961,-35.3564069,149.1591239,684.41,262,-0.025176649913191795,-0.007260594982653856,-1.6972827911376953
1741631493.1401227,-35.3564069,149.1591239,684.41,262,-0.025176649913191795,-0.007260594982653856,-1.6972827911376953
1741631493.2403688,-35.3564141,149.1590592,684.4,262,-0.025116218253970146,-0.007560089696198702,-1.6973437070846558
1741631493.3405285,-35.3564141,149.1590592,684.4,262,-0.025116218253970146,-0.007560089696198702,-1.6973437070846558
1741631493.4406312,-35.3564207,149.1589995,684.4,262,-0.02512098103761673,-0.007735859137028456,-1.6973718404769897
1741631493.5407653,-35.3564207,149.1589995,684.4,262,-0.02512098103761673,-0.007735859137028456,-1.6973718404769897
1741631493.6409342,-35.3564207,149.1589995,684.4,262,-0.02512098103761673,-0.007735859137028456,-1.6973718404769897
1741631493.741139,-35.3564279,149.1589348,684.4,262,-0.025242498144507408,-0.007617960684001446,-1.697461485862732
1741631493.8413415,-35.3564279,149.1589348,684.4,262,-0.025242498144507408,-0.007617960684001446,-1.697461485862732
1741631493.9415019,-35.3564345,149.1588751,684.4,262,-0.025200458243489265,-0.007625361904501915,-1.6974374055862427
1741631494.041709,-35.3564345,149.1588751,684.4,262,-0.025200458243489265,-0.007625361904501915,-1.6974374055862427
1741631494.1418488,-35.3564345,149.1588751,684.4,262,-0.025200458243489265,-0.007625361904501915,-1.6974374055862427
1741631494.2420642,-35.3564416,149.1588104,684.4,262,-0.025100531056523323,-0.00763820530846715,-1.6976182460784912
1741631494.342263,-35.3564416,149.1588104,684.4,262,-0.025100531056523323,-0.00763820530846715,-1.6976182460784912
1741631494.442386,-35.3564483,149.1587507,684.41,262,-0.025280196219682693,-0.007450411096215248,-1.6977120637893677
1741631494.5425026,-35.3564483,149.1587507,684.41,262,-0.025280196219682693,-0.007450411096215248,-1.6977120637893677
1741631494.6426706,-35.3564483,149.1587507,684.41,262,-0.025280196219682693,-0.007450411096215248,-1.6977120637893677
1741631494.7428558,-35.3564554,149.158686,684.41,262,-0.025250008329749107,-0.0072226510383188725,-1.6976912021636963
1741631494.8430634,-35.3564554,149.158686,684.41,262,-0.025250008329749107,-0.0072226510383188725,-1.6976912021636963
1741631494.9432309,-35.356462,149.1586262,684.42,262,-0.025283873081207275,-0.007283851504325867,-1.6978007555007935
1741631495.0434556,-35.356462,149.1586262,684.42,262,-0.025283873081207275,-0.007283851504325867,-1.6978007555007935
1741631495.1437347,-35.356462,149.1586262,684.42,262,-0.025283873081207275,-0.007283851504325867,-1.6978007555007935
1741631495.2440493,-35.3564692,149.1585615,684.42,262,-0.025362327694892883,-0.007555053103715181,-1.6978169679641724
1741631495.3443103,-35.3564692,149.1585615,684.42,262,-0.025362327694892883,-0.007555053103715181,-1.6978169679641724
1741631495.444439,-35.3564758,149.1585018,684.42,262,-0.02522951550781727,-0.007848881185054779,-1.6978100538253784
1741631495.5447161,-35.3564758,149.1585018,684.42,262,-0.02522951550781727,-0.007848881185054779,-1.6978100538253784
1741631495.6449003,-35.3564758,149.1585018,684.42,262,-0.02522951550781727,-0.007848881185054779,-1.6978100538253784
1741631495.7452202,-35.356483,149.1584371,684.42,262,-0.025336790829896927,-0.00815290305763483,-1.6979222297668457
1741631495.845526,-35.356483,149.1584371,684.42,262,-0.025336790829896927,-0.00815290305763483,-1.6979222297668457
1741631495.9457042,-35.3564896,149.1583774,684.41,262,-0.02547885850071907,-0.008206699974834919,-1.6980180740356445
1741631496.0458703,-35.3564896,149.1583774,684.41,262,-0.02547885850071907,-0.008206699974834919,-1.6980180740356445
1741631496.1460598,-35.3564896,149.1583774,684.41,262,-0.02547885850071907,-0.008206699974834919,-1.6980180740356445
1741631496.2463667,-35.3564968,149.1583127,684.41,262,-0.025526724755764008,-0.007828393951058388,-1.6981559991836548
1741631496.3466592,-35.3564968,149.1583127,684.41,262,-0.025526724755764008,-0.007828393951058388,-1.6981559991836548
1741631496.446798,-35.3565034,149.158253,684.42,262,-0.02542286179959774,-0.007117520552128553,-1.6982532739639282
1741631496.547077,-35.3565034,149.158253,684.42,262,-0.02542286179959774,-0.007117520552128553,-1.6982532739639282
1741631496.6473591,-35.3565034,149.158253,684.42,262,-0.02542286179959774,-0.007117520552128553,-1.6982532739639282
1741631496.7476425,-35.3565105,149.1581883,684.43,262,-0.025222470983862877,-0.006392770912498236,-1.6984379291534424
1741631496.8479054,-35.3565105,149.1581883,684.43,262,-0.025222470983862877,-0.006392770912498236,-1.6984379291534424
1741631496.9480834,-35.3565172,149.1581286,684.43,262,-0.025293095037341118,-0.006206534802913666,-1.6984916925430298
1741631497.0483756,-35.3565172,149.1581286,684.43,262,-0.025293095037341118,-0.006206534802913666,-1.6984916925430298
1741631497.1486027,-35.3565172,149.1581286,684.43,262,-0.025293095037341118,-0.006206534802913666,-1.6984916925430298
1741631497.2487488,-35.3565243,149.158064,684.44,262,-0.0251788217574358,-0.0065896096639335155,-1.6986005306243896
1741631497.3488727,-35.3565243,149.158064,684.44,262,-0.0251788217574358,-0.0065896096639335155,-1.6986005306243896
1741631497.4490848,-35.3565309,149.1580044,684.44,262,-0.025103596970438957,-0.007373237982392311,-1.69868803024292
1741631497.5493083,-35.3565309,149.1580044,684.44,262,-0.025103596970438957,-0.007373237982392311,-1.69868803024292
1741631497.6495833,-35.3565309,149.1580044,684.44,262,-0.025103596970438957,-0.007373237982392311,-1.69868803024292
1741631497.7497585,-35.3565381,149.1579398,684.44,262,-0.025177139788866043,-0.008302425965666771,-1.698691725730896
1741631497.8500404,-35.3565381,149.1579398,684.44,262,-0.025177139788866043,-0.008302425965666771,-1.698691725730896
1741631497.950295,-35.3565447,149.1578801,684.44,262,-0.025151873007416725,-0.008767043240368366,-1.6987769603729248
1741631498.0505264,-35.3565447,149.1578801,684.44,262,-0.025151873007416725,-0.008767043240368366,-1.6987769603729248
1741631498.1507587,-35.3565447,149.1578801,684.44,262,-0.025151873007416725,-0.008767043240368366,-1.6987769603729248
1741631498.250978,-35.3565518,149.1578155,684.43,262,-0.025235634297132492,-0.00879271887242794,-1.6988519430160522
1741631498.3511472,-35.3565518,149.1578155,684.43,262,-0.025235634297132492,-0.00879271887242794,-1.6988519430160522
1741631498.4512763,-35.3565584,149.1577559,684.42,262,-0.025350943207740784,-0.008410787209868431,-1.6989048719406128
1741631498.551504,-35.3565584,149.1577559,684.42,262,-0.025350943207740784,-0.008410787209868431,-1.6989048719406128
1741631498.651809,-35.3565584,149.1577559,684.42,262,-0.025350943207740784,-0.008410787209868431,-1.6989048719406128
1741631498.7521157,-35.3565656,149.1576913,684.41,262,-0.025355348363518715,-0.007848074659705162,-1.6990963220596313
1741631498.852371,-35.3565656,149.1576913,684.41,262,-0.025355348363518715,-0.007848074659705162,-1.6990963220596313
1741631498.9525616,-35.3565722,149.1576317,684.41,262,-0.025256076827645302,-0.0073003522120416164,-1.6992950439453125
1741631499.052779,-35.3565722,149.1576317,684.41,262,-0.025256076827645302,-0.0073003522120416164,-1.6992950439453125
1741631499.152952,-35.3565722,149.1576317,684.41,262,-0.025256076827645302,-0.0073003522120416164,-1.6992950439453125
1741631499.2531183,-35.3565794,149.1575671,684.41,262,-0.02511683665215969,-0.006865870673209429,-1.6994267702102661
1741631499.3533883,-35.3565794,149.1575671,684.41,262,-0.02511683665215969,-0.006865870673209429,-1.6994267702102661
1741631499.453535,-35.356586,149.1575074,684.41,262,-0.025052525103092194,-0.006736460607498884,-1.699486255645752
1741631499.5537584,-35.356586,149.1575074,684.41,262,-0.025052525103092194,-0.006736460607498884,-1.699486255645752
1741631499.6539288,-35.356586,149.1575074,684.41,262,-0.025052525103092194,-0.006736460607498884,-1.699486255645752
1741631499.7541761,-35.3565932,149.1574428,684.4,262,-0.024954214692115784,-0.0067237927578389645,-1.699478268623352
1741631499.8544226,-35.3565932,149.1574428,684.4,262,-0.024954214692115784,-0.0067237927578389645,-1.699478268623352
1741631499.9545794,-35.3565998,149.1573832,684.4,262,-0.02486991509795189,-0.006884775590151548,-1.6995270252227783
1741631500.0548806,-35.3565998,149.1573832,684.4,262,-0.02486991509795189,-0.006884775590151548,-1.6995270252227783
1741631500.1550584,-35.3565998,149.1573832,684.4,262,-0.02486991509795189,-0.006884775590151548,-1.6995270252227783
1741631500.2553067,-35.3566069,149.1573187,684.4,262,-0.02503339760005474,-0.007308772765100002,-1.6995666027069092
1741631500.3554752,-35.3566069,149.1573187,684.4,262,-0.02503339760005474,-0.007308772765100002,-1.6995666027069092
1741631500.4556513,-35.3566136,149.1572591,684.4,262,-0.025136178359389305,-0.00762737775221467,-1.6996325254440308
1741631500.5559032,-35.3566136,149.1572591,684.4,262,-0.025136178359389305,-0.00762737775221467,-1.6996325254440308
1741631500.6561983,-35.3566136,149.1572591,684.4,262,-0.025136178359389305,-0.00762737775221467,-1.6996325254440308
1741631500.75634,-35.3566207,149.1571945,684.4,262,-0.025096239522099495,-0.007679283618927002,-1.69965398311615
1741631500.8565989,-35.3566207,149.1571945,684.4,262,-0.025096239522099495,-0.007679283618927002,-1.69965398311615
1741631500.9567673,-35.3566273,149.1571349,684.4,262,-0.025108637288212776,-0.007622765377163887,-1.6996713876724243
1741631501.0569654,-35.3566273,149.1571349,684.4,262,-0.025108637288212776,-0.007622765377163887,-1.6996713876724243
1741631501.1572232,-35.3566273,149.1571349,684.4,262,-0.025108637288212776,-0.007622765377163887,-1.6996713876724243
1741631501.2573972,-35.3566345,149.1570703,684.39,262,-0.025256093591451645,-0.007507992442697287,-1.69975745677948
1741631501.357573,-35.3566345,149.1570703,684.39,262,-0.025256093591451645,-0.007507992442697287,-1.69975745677948
1741631501.4577017,-35.3566411,149.1570107,684.4,262,-0.04945356771349907,-0.007284964434802532,-1.698569893836975
1741631501.557969,-35.3566411,149.1570107,684.4,262,-0.04945356771349907,-0.007284964434802532,-1.698569893836975
1741631501.6582136,-35.3566411,149.1570107,684.4,262,-0.04945356771349907,-0.007284964434802532,-1.698569893836975
1741631501.758471,-35.3566484,149.1569461,684.39,262,-0.17868083715438843,-0.006408387795090675,-1.6947568655014038
1741631501.8587286,-35.3566484,149.1569461,684.39,262,-0.17868083715438843,-0.006408387795090675,-1.6947568655014038
1741631501.9589007,-35.3566558,149.1568867,684.37,262,-0.3415752649307251,-0.007110299542546272,-1.7020317316055298
1741631502.0590777,-35.3566558,149.1568867,684.37,262,-0.3415752649307251,-0.007110299542546272,-1.7020317316055298
1741631502.1592546,-35.3566558,149.1568867,684.37,262,-0.3415752649307251,-0.007110299542546272,-1.7020317316055298
1741631502.259438,-35.3566651,149.1568226,684.29,260,-0.536103367805481,-0.013726036995649338,-1.7290705442428589
1741631502.3596382,-35.3566651,149.1568226,684.29,260,-0.536103367805481,-0.013726036995649338,-1.7290705442428589
1741631502.459873,-35.3566756,149.1567637,684.13,258,-0.7205132246017456,-0.023987406864762306,-1.7728168964385986
1741631502.5601354,-35.3566756,149.1567637,684.13,258,-0.7205132246017456,-0.023987406864762306,-1.7728168964385986
1741631502.6604116,-35.3566756,149.1567637,684.13,258,-0.7205132246017456,-0.023987406864762306,-1.7728168964385986
1741631502.7605867,-35.35669,149.1567005,683.82,254,-0.8810669779777527,-0.036636099219322205,-1.849551796913147
1741631502.8608158,-35.35669,149.1567005,683.82,254,-0.8810669779777527,-0.036636099219322205,-1.849551796913147
1741631502.9609559,-35.3567073,149.1566429,683.44,247,-0.973063588142395,-0.04417187348008156,-1.9568630456924438
1741631503.0611145,-35.3567073,149.1566429,683.44,247,-0.973063588142395,-0.04417187348008156,-1.9568630456924438
1741631503.1612585,-35.3567073,149.1566429,683.44,247,-0.973063588142395,-0.04417187348008156,-1.9568630456924438
1741631503.261528,-35.3567326,149.1565824,682.97,238,-1.0211673974990845,-0.03777218610048294,-2.11759352684021
1741631503.3618345,-35.3567326,149.1565824,682.97,238,-1.0211673974990845,-0.03777218610048294,-2.11759352684021
1741631503.461964,-35.3567638,149.1565306,682.6,228,-1.033372163772583,-0.012873776257038116,-2.3037075996398926
1741631503.5620773,-35.3567638,149.1565306,682.6,228,-1.033372163772583,-0.012873776257038116,-2.3037075996398926
1741631503.6622097,-35.3567638,149.1565306,682.6,228,-1.033372163772583,-0.012873776257038116,-2.3037075996398926
1741631503.7623641,-35.356807,149.1564826,682.42,214,-1.0238226652145386,0.032990630716085434,-2.531769275665283
1741631503.8625324,-35.356807,149.1564826,682.42,214,-1.0238226652145386,0.032990630716085434,-2.531769275665283
1741631503.9627187,-35.3568546,149.1564495,682.55,202,-0.9933180809020996,0.08574362099170685,-2.7453835010528564
1741631504.0628862,-35.3568546,149.1564495,682.55,202,-0.9933180809020996,0.08574362099170685,-2.7453835010528564
1741631504.1630435,-35.3568546,149.1564495,682.55,202,-0.9933180809020996,0.08574362099170685,-2.7453835010528564
1741631504.263177,-35.3569115,149.1564279,683.1,190,-0.9213519096374512,0.14408883452415466,-2.952194929122925
1741631504.363327,-35.3569115,149.1564279,683.1,190,-0.9213519096374512,0.14408883452415466,-2.952194929122925
1741631504.4634778,-35.3569658,149.1564203,683.97,182,-0.817083477973938,0.18743829429149628,-3.096877098083496
1741631504.5637708,-35.3569658,149.1564203,683.97,182,-0.817083477973938,0.18743829429149628,-3.096877098083496
1741631504.6639318,-35.3569658,149.1564203,683.97,182,-0.817083477973938,0.18743829429149628,-3.096877098083496
1741631504.7640967,-35.3570237,149.1564217,685.19,177,-0.6772253513336182,0.2044401615858078,3.0893800258636475
1741631504.8642714,-35.3570237,149.1564217,685.19,177,-0.6772253513336182,0.2044401615858078,3.0893800258636475
1741631504.9644294,-35.3570754,149.1564279,686.36,174,-0.5298629403114319,0.18407714366912842,3.042313814163208
1741631505.064687,-35.3570754,149.1564279,686.36,174,-0.5298629403114319,0.18407714366912842,3.042313814163208
1741631505.1647847,-35.3570754,149.1564279,686.36,174,-0.5298629403114319,0.18407714366912842,3.042313814163208
1741631505.2648964,-35.3571295,149.1564371,687.45,172,-0.35674595832824707,0.1304209679365158,3.0143094062805176
1741631505.365045,-35.3571295,149.1564371,687.45,172,-0.35674595832824707,0.1304209679365158,3.0143094062805176
1741631505.4652195,-35.3571779,149.1564463,688.14,171,-0.18750278651714325,0.06256116181612015,2.996246576309204
1741631505.565375,-35.3571779,149.1564463,688.14,171,-0.18750278651714325,0.06256116181612015,2.996246576309204
1741631505.6655388,-35.3571779,149.1564463,688.14,171,-0.18750278651714325,0.06256116181612015,2.996246576309204
1741631505.7656858,-35.3572289,149.1564564,688.46,170,0.004157502204179764,-0.020550133660435677,2.9790284633636475
1741631505.865893,-35.3572289,149.1564564,688.46,170,0.004157502204179764,-0.020550133660435677,2.9790284633636475
1741631505.9660587,-35.3572749,149.1564655,688.33,170,0.16785778105258942,-0.09154167026281357,2.967174768447876
1741631506.0662208,-35.3572749,149.1564655,688.33,170,0.16785778105258942,-0.09154167026281357,2.967174768447876
1741631506.1663585,-35.3572749,149.1564655,688.33,170,0.16785778105258942,-0.09154167026281357,2.967174768447876
1741631506.2664962,-35.3573239,149.1564751,687.78,170,0.2990092635154724,-0.1464194506406784,2.9701900482177734
1741631506.366806,-35.3573239,149.1564751,687.78,170,0.2990092635154724,-0.1464194506406784,2.9701900482177734
